id,name,address,type,typecode,pcode,pname,citycode,cityname,adcode,adname,business_area,location,tel,bigType,midType,smallType,gcj_lng,gcj_lat,wgs84_loc,wgs84Lng,wgs84Lat,geometry,function_type
B00155QT5W,同济大学出版社,四平路1239号同济大学四平路校区,科教文化服务;传媒机构;出版社,141105,310000,上海市,21,上海市,310110,杨浦区,四平路,"121.504279,31.279172",021-65981474,科教文化服务,传媒机构,出版社,121.504279,31.279172,"121.499859,31.281182",121.499859,31.281182,POINT (121.499859 31.281182),教育
B00156EIOO,上海开放大学国际会议中心,政法路195号,科教文化服务;会展中心;会展中心,140300,310000,上海市,21,上海市,310110,杨浦区,四平路,"121.513691,31.293023",[],科教文化服务,会展中心,会展中心,121.513691,31.293023,"121.509304,31.295056",121.509304,31.295056,POINT (121.509304 31.295056),教育
B0IGC5D3PP,上海国际设计创新学院,四平路与赤峰路交叉口东北200米,科教文化服务;学校;高等院校,141201,310000,上海市,21,上海市,310110,杨浦区,四平路,"121.505641,31.280329",[],科教文化服务,学校,高等院校,121.505641,31.280329,"121.501226,31.282343",121.501226,31.282343,POINT (121.501226 31.282343),教育
B0H27L1ISP,涛创体育篮球乒乓球培训,大连路与阜新路交叉口东南约80米,科教文化服务;培训机构;培训机构,141400,310000,上海市,21,上海市,310110,杨浦区,四平路,"121.504509,31.272522",[],科教文化服务,培训机构,培训机构,121.504509,31.272522,"121.50009,31.274536",121.50009,31.274536,POINT (121.50009 31.274536),教育
B00154TJS6,中国教育工会复旦大学委员会,国年路275弄7号,科教文化服务;科教文化场所;科教文化场所,140000,310000,上海市,21,上海市,310110,杨浦区,四平路,"121.505307,31.294633",[],科教文化服务,科教文化场所,科教文化场所,121.505307,31.294633,"121.500889,31.29664",121.500889,31.29664,POINT (121.500889 31.29664),教育
B0FFH2ITTZ,上海复新进修学院,国定路335号12层,科教文化服务;学校;成人教育,141205,310000,上海市,21,上海市,310110,杨浦区,四平路,"121.508596,31.297004",18621650502,科教文化服务,学校,成人教育,121.508596,31.297004,"121.50419,31.29902",121.50419,31.29902,POINT (121.50419 31.29902),教育
B0FFGODR9S,上海纽尔玛营养健康管理进修学院,国权路98号国阳大厦9层,科教文化服务;学校;成人教育,141205,310000,上海市,21,上海市,310110,杨浦区,四平路,"121.515722,31.288168",18001718326,科教文化服务,学校,成人教育,121.515722,31.288168,"121.511342,31.290208",121.511342,31.290208,POINT (121.511342 31.290208),教育
B0FFF05FGI,上海杨浦区万学进修学校,国定路335号1号楼5003室,科教文化服务;学校;成人教育,141205,310000,上海市,21,上海市,310110,杨浦区,四平路,"121.508747,31.297147",021-55666892,科教文化服务,学校,成人教育,121.508747,31.297147,"121.504342,31.299163",121.504342,31.299163,POINT (121.504342 31.299163),教育
B00156O92N,上海市复旦求是进修学院,国达路58号(杨浦区复旦科技创业园区3号湾广场),科教文化服务;学校;成人教育,141205,310000,上海市,21,上海市,310110,杨浦区,四平路,"121.508911,31.296031",021-55666303,科教文化服务,学校,成人教育,121.508911,31.296031,"121.504506,31.298048",121.504506,31.298048,POINT (121.504506 31.298048),教育
B00155QUT9,上海杨浦区复旦附中进修学校,政熙路2号复旦大学,科教文化服务;学校;成人教育,141205,310000,上海市,21,上海市,310110,杨浦区,四平路,"121.506819,31.289301",021-65647956;4008205158,科教文化服务,学校,成人教育,121.506819,31.289301,"121.502407,31.291315",121.502407,31.291315,POINT (121.502407 31.291315),教育
B00155HHYC,上海开放大学,国顺路288号,科教文化服务;学校;高等院校,141201,310000,上海市,21,上海市,310110,杨浦区,四平路,"121.514181,31.292545",021-25653103;021-25653102;021-55062355,科教文化服务,学校,高等院校,121.514181,31.292545,"121.509795,31.294579",121.509795,31.294579,POINT (121.509795 31.294579),教育
B0IBCHIEFB,上海市杨浦区台萌进修学校,凤城路101号B幢,科教文化服务;学校;成人教育,141205,310000,上海市,21,上海市,310110,杨浦区,四平路,"121.522743,31.279312",[],科教文化服务,学校,成人教育,121.522743,31.279312,"121.518388,31.281376",121.518388,31.281376,POINT (121.518388 31.281376),教育
B0FFGOF013,有线电视站,政化路257号106室,科教文化服务;科教文化场所;科教文化场所,140000,310000,上海市,21,上海市,310110,杨浦区,四平路,"121.510207,31.293593",[],科教文化服务,科教文化场所,科教文化场所,121.510207,31.293593,"121.505807,31.295615",121.505807,31.295615,POINT (121.505807 31.295615),教育
B00156LUC2,复旦大学智能公话站,国顺路649附近,科教文化服务;学校;高等院校,141201,310000,上海市,21,上海市,310110,杨浦区,四平路,"121.506071,31.29609",[],科教文化服务,学校,高等院校,121.506071,31.29609,"121.501656,31.298099",121.501656,31.298099,POINT (121.501656 31.298099),教育
B0FFFZJXX1,上海杨浦区阜和进修学校,四平路1388号同济联合广场C楼10层,科教文化服务;学校;成人教育,141205,310000,上海市,21,上海市,310110,杨浦区,四平路,"121.507475,31.281304",[],科教文化服务,学校,成人教育,121.507475,31.281304,"121.503066,31.283323",121.503066,31.283323,POINT (121.503066 31.283323),教育
B00154OYP6,杨浦高级中学,四平路999号(近大连路),科教文化服务;学校;中学,141202,310000,上海市,21,上海市,310110,杨浦区,四平路,"121.500408,31.277089",021-65976032,科教文化服务,学校,中学,121.500408,31.277089,"121.495974,31.279089",121.495974,31.279089,POINT (121.495974 31.279089),教育
B0FFKHA4J4,上海市杨浦区大连路第二幼儿园,大连西路30弄13号附近,科教文化服务;学校;幼儿园,141204,310000,上海市,21,上海市,310110,杨浦区,四平路,"121.497647,31.277934",[],科教文化服务,学校,幼儿园,121.497647,31.277934,"121.493203,31.279925",121.493203,31.279925,POINT (121.493203 31.279925),教育
B00155MMUO,同济大学四平路校区(南区),赤峰路67同济大学,科教文化服务;学校;高等院校,141201,310000,上海市,21,上海市,310110,杨浦区,四平路,"121.499161,31.279464",[],科教文化服务,学校,高等院校,121.499161,31.279464,"121.494723,31.281459",121.494723,31.281459,POINT (121.494723 31.281459),教育
B00155F1BJ,同济大学四平路校区外国语学院,国康路11号,科教文化服务;学校;高等院校,141201,310000,上海市,21,上海市,310110,杨浦区,四平路,"121.505971,31.284255",[],科教文化服务,学校,高等院校,121.505971,31.284255,"121.501557,31.286268",121.501557,31.286268,POINT (121.501557 31.286268),教育
B001571I7O,新王牌教育(杨浦中心),大连路1548号莱克商务中心2层201-202,科教文化服务;培训机构;培训机构,141400,310000,上海市,21,上海市,310110,杨浦区,四平路,"121.503369,31.273562",021-65552220,科教文化服务,培训机构,培训机构,121.503369,31.273562,"121.498946,31.275572",121.498946,31.275572,POINT (121.498946 31.275572),教育
B00155KCHG,复旦大学美国研究中心,国权路680号复旦大学,科教文化服务;科研机构;科研机构,141300,310000,上海市,21,上海市,310110,杨浦区,四平路,"121.503316,31.295549",[],科教文化服务,科研机构,科研机构,121.503316,31.295549,"121.498891,31.29755",121.498891,31.29755,POINT (121.498891 31.29755),教育
B00155QT5W,同济大学四平路校区出版社(赤峰路),赤峰路2号,科教文化服务;传媒机构;出版社,141105,310000,上海市,21,上海市,310110,杨浦区,四平路,"121.504202,31.279215",[],科教文化服务,传媒机构,出版社,121.504202,31.279215,"121.499782,31.281225",121.499782,31.281225,POINT (121.499782 31.281225),教育
B001559HJF,复旦大学文科图书馆,国年路300号(邯郸路口),科教文化服务;图书馆;图书馆,140500,310000,上海市,21,上海市,310110,杨浦区,四平路,"121.50518,31.296125",021-65643178,科教文化服务,图书馆,图书馆,121.50518,31.296125,"121.500762,31.298131",121.500762,31.298131,POINT (121.500762 31.298131),教育
B00155MMUJ,同济大学四平路校区档案馆,四平路1239号同济大学四平路校区,科教文化服务;档案馆;档案馆,140900,310000,上海市,21,上海市,310110,杨浦区,四平路,"121.499023,31.279127",021-65980365,科教文化服务,档案馆,档案馆,121.499023,31.279127,"121.494584,31.281122",121.494584,31.281122,POINT (121.494584 31.281122),教育
B00155MLYL,同济大学图书馆,四平路1239号同济大学,科教文化服务;图书馆;图书馆,140500,310000,上海市,21,上海市,310110,杨浦区,四平路,"121.503965,31.283437",[],科教文化服务,图书馆,图书馆,121.503965,31.283437,"121.499544,31.285445",121.499544,31.285445,POINT (121.499544 31.285445),教育
B001538431,复旦大学附属小学,政修路130号,科教文化服务;学校;小学,141203,310000,上海市,21,上海市,310110,杨浦区,四平路,"121.505355,31.292306",021-65643395;021-65643393,科教文化服务,学校,小学,121.505355,31.292306,"121.500938,31.294314",121.500938,31.294314,POINT (121.500938 31.294314),教育
B0FFFO1NZX,同济大学建筑设计研究院集团有限公司,四平路1230号,科教文化服务;科研机构;科研机构,141300,310000,上海市,21,上海市,310110,杨浦区,四平路,"121.507171,31.280224",[],科教文化服务,科研机构,科研机构,121.507171,31.280224,"121.502761,31.282243",121.502761,31.282243,POINT (121.502761 31.282243),教育
B00155BMZ2,五角场街道社区文化活动中心,政化路257号,科教文化服务;文化宫;文化宫,140800,310000,上海市,21,上海市,310110,杨浦区,四平路,"121.510187,31.293286",[],科教文化服务,文化宫,文化宫,121.510187,31.293286,"121.505787,31.295308",121.505787,31.295308,POINT (121.505787 31.295308),教育
B00155KUJ6,同济大学研究生院,四平路1239号同济大学四平路校区,科教文化服务;学校;高等院校,141201,310000,上海市,21,上海市,310110,杨浦区,四平路,"121.502419,31.284715",[],科教文化服务,学校,高等院校,121.502419,31.284715,"121.497992,31.286717",121.497992,31.286717,POINT (121.497992 31.286717),教育
B00156NYDD,复旦大学附属中学国际部,国权路325号,科教文化服务;学校;中学,141202,310000,上海市,21,上海市,310110,杨浦区,四平路,"121.508062,31.28996",021-65107760;021-65201726,科教文化服务,学校,中学,121.508062,31.28996,"121.503655,31.291977",121.503655,31.291977,POINT (121.503655 31.291977),教育
B0FFGDQ1AH,同济大学外国留学生教育部,赤峰路75附近,科教文化服务;学校;高等院校,141201,310000,上海市,21,上海市,310110,杨浦区,四平路,"121.499202,31.280693",[],科教文化服务,学校,高等院校,121.499202,31.280693,"121.494764,31.282687",121.494764,31.282687,POINT (121.494764 31.282687),教育
B0015288C0,交通银行上海市分行员工培育发展管理中心,赤峰路89弄1号,科教文化服务;培训机构;培训机构,141400,310000,上海市,21,上海市,310110,杨浦区,四平路,"121.498072,31.281162",[],科教文化服务,培训机构,培训机构,121.498072,31.281162,"121.493629,31.283153",121.493629,31.283153,POINT (121.493629 31.283153),教育
B0HUYRU0T3,同济大学图书馆医学分馆,赤峰路50同济大学,科教文化服务;图书馆;图书馆,140500,310000,上海市,21,上海市,310110,杨浦区,四平路,"121.501469,31.281733",021-65983835,科教文化服务,图书馆,图书馆,121.501469,31.281733,"121.497039,31.283734",121.497039,31.283734,POINT (121.497039 31.283734),教育
B00155MEJI,四平路街道图书馆,抚顺路360号(近鞍山路),科教文化服务;图书馆;图书馆,140500,310000,上海市,21,上海市,310110,杨浦区,四平路,"121.510604,31.278613",[],科教文化服务,图书馆,图书馆,121.510604,31.278613,"121.506207,31.280642",121.506207,31.280642,POINT (121.506207 31.280642),教育
B0GUKSCZ99,紫荆同萌汇儿童双语图书馆(紫荆广场江浦路店),控江路1628号紫荆广场F4,科教文化服务;科教文化场所;科教文化场所,140000,310000,上海市,21,上海市,310110,杨浦区,四平路,"121.517871,31.275311",13020240765,科教文化服务,科教文化场所,科教文化场所,121.517871,31.275311,"121.5135,31.277363",121.5135,31.277363,POINT (121.5135 31.277363),教育
B0FFL6LDVU,打虎山路第一小学(西北分部),阜新路38号(弄內),科教文化服务;学校;小学,141203,310000,上海市,21,上海市,310110,杨浦区,四平路,"121.505213,31.273432",[],科教文化服务,学校,小学,121.505213,31.273432,"121.500797,31.275448",121.500797,31.275448,POINT (121.500797 31.275448),教育
B0FFKI6RIA,好姑姑上海大花园托育园(上海直营园),周家嘴路1301号,科教文化服务;学校;幼儿园,141204,310000,上海市,21,上海市,310110,杨浦区,四平路,"121.512528,31.264500",4006708550,科教文化服务,学校,幼儿园,121.512528,31.2645,"121.508139,31.266541",121.508139,31.266541,POINT (121.508139 31.266541),教育
B0FFJPEMHT,同济大学博物馆,四平路1239号同济大学一二九大楼,科教文化服务;科教文化场所;科教文化场所,140000,310000,上海市,21,上海市,310110,杨浦区,四平路,"121.503971,31.281790",021-65983563,科教文化服务,科教文化场所,科教文化场所,121.503971,31.28179,"121.49955,31.283798",121.49955,31.283798,POINT (121.49955 31.283798),教育
B00156GX5I,威固隔热膜博物馆,黄兴路1599号新纪元国际广场12层1216号,科教文化服务;博物馆;博物馆,140100,310000,上海市,21,上海市,310110,杨浦区,四平路,"121.521099,31.286842",021-55128855,科教文化服务,博物馆,博物馆,121.521099,31.286842,"121.516738,31.288898",121.516738,31.288898,POINT (121.516738 31.288898),教育
B0FFHO1B4R,上海复旦大学电子音像出版社有限公司,国权路579号,科教文化服务;传媒机构;出版社,141105,310000,上海市,21,上海市,310110,杨浦区,四平路,"121.503037,31.294623",021-65642854;021-65654724,科教文化服务,传媒机构,出版社,121.503037,31.294623,"121.498611,31.296623",121.498611,31.296623,POINT (121.498611 31.296623),教育
B0HUYRSAHL,同济大学电子音像出版社,四平路1239号同济大学四平路校区,科教文化服务;传媒机构;出版社,141105,310000,上海市,21,上海市,310110,杨浦区,四平路,"121.499023,31.279127",[],科教文化服务,传媒机构,出版社,121.499023,31.279127,"121.494584,31.281122",121.494584,31.281122,POINT (121.494584 31.281122),教育
B00156OC2I,上海电控研究所,江浦路1380-1号附近,科教文化服务;科研机构;科研机构,141300,310000,上海市,21,上海市,310110,杨浦区,四平路,"121.519527,31.272599",021-55950150,科教文化服务,科研机构,科研机构,121.519527,31.272599,"121.515162,31.274657",121.515162,31.274657,POINT (121.515162 31.274657),教育
B0FFHC0MD8,同励建筑设计院,四平路街道四平路1230号同济大学建筑设计研究院203室,科教文化服务;科研机构;科研机构,141300,310000,上海市,21,上海市,310110,杨浦区,四平路,"121.507733,31.280383",[],科教文化服务,科研机构,科研机构,121.507733,31.280383,"121.503325,31.282403",121.503325,31.282403,POINT (121.503325 31.282403),教育
B001571LIC,同济大学四平路校区土木工程防灾国家重点实验室,四平路1239同济大学,科教文化服务;科研机构;科研机构,141300,310000,上海市,21,上海市,310110,杨浦区,四平路,"121.498179,31.284862",[],科教文化服务,科研机构,科研机构,121.498179,31.284862,"121.493737,31.286852",121.493737,31.286852,POINT (121.493737 31.286852),教育
B00156GWRN,市政设计集团城市交通与地下空间设计研究院,国权路98号国阳大厦7-8层,科教文化服务;科研机构;科研机构,141300,310000,上海市,21,上海市,310110,杨浦区,四平路,"121.515800,31.288140",[],科教文化服务,科研机构,科研机构,121.5158,31.28814,"121.51142,31.290181",121.51142,31.290181,POINT (121.51142 31.290181),教育
B0FFK8HMC2,上海国际设计创新研究院,四平路1230号同济科技园A101-201,科教文化服务;科教文化场所;科教文化场所,140000,310000,上海市,21,上海市,310110,杨浦区,四平路,"121.505742,31.280363",021-65101082,科教文化服务,科教文化场所,科教文化场所,121.505742,31.280363,"121.501327,31.282377",121.501327,31.282377,POINT (121.501327 31.282377),教育
B0FFG8EFBF,上海市政总院,[],科教文化服务;科研机构;科研机构,141300,310000,上海市,21,上海市,310110,杨浦区,四平路,"121.505693,31.285882",[],科教文化服务,科研机构,科研机构,121.505693,31.285882,"121.501278,31.287894",121.501278,31.287894,POINT (121.501278 31.287894),教育
B00155MLYQ,同济大学四平路校区声学研究所,四平路1239号同济大学,科教文化服务;科研机构;科研机构,141300,310000,上海市,21,上海市,310110,杨浦区,四平路,"121.502709,31.285141",[],科教文化服务,科研机构,科研机构,121.502709,31.285141,"121.498283,31.287144",121.498283,31.287144,POINT (121.498283 31.287144),教育
B00155E8DB,复旦大学国际经技所民营企业管理研修办公室,国定路335上海复旦科技园创业中心11层1100复旦大学,科教文化服务;科研机构;科研机构,141300,310000,上海市,21,上海市,310110,杨浦区,四平路,"121.508578,31.296968",[],科教文化服务,科研机构,科研机构,121.508578,31.296968,"121.504172,31.298984",121.504172,31.298984,POINT (121.504172 31.298984),教育
B00152634D,中国水产科学研究院渔业机械仪器研究所,赤峰路63号沪东科技园,科教文化服务;科研机构;科研机构,141300,310000,上海市,21,上海市,310110,杨浦区,四平路,"121.501070,31.280050",[],科教文化服务,科研机构,科研机构,121.50107,31.28005,"121.496638,31.28205",121.496638,31.28205,POINT (121.496638 31.28205),教育
B0FFGHEJ8P,道路桥梁设计研究院,中山北二路901号上海市政工程设计研究总院1号楼6楼,科教文化服务;科研机构;科研机构,141300,310000,上海市,21,上海市,310110,杨浦区,四平路,"121.506721,31.285820",[],科教文化服务,科研机构,科研机构,121.506721,31.28582,"121.502309,31.287835",121.502309,31.287835,POINT (121.502309 31.287835),教育
B0FFH2Z3ZW,同济大学建筑设计院(集团)有限公司-都城建筑设计院(二所),四平路1230号,科教文化服务;科研机构;科研机构,141300,310000,上海市,21,上海市,310110,杨浦区,四平路,"121.507100,31.280350",[],科教文化服务,科研机构,科研机构,121.5071,31.28035,"121.50269,31.282368",121.50269,31.282368,POINT (121.50269 31.282368),教育
B0FFF57CXN,商业建筑设计院,中山北二路国康路上海设计中心北裙房二楼,科教文化服务;科教文化场所;科教文化场所,140000,310000,上海市,21,上海市,310110,杨浦区,四平路,"121.502757,31.286898",[],科教文化服务,科教文化场所,科教文化场所,121.502757,31.286898,"121.498331,31.288901",121.498331,31.288901,POINT (121.498331 31.288901),教育
B0FFLOHBLJ,联创国际主楼研究院,控江路街道控江路1500号,科教文化服务;科研机构;科研机构,141300,310000,上海市,21,上海市,310110,杨浦区,四平路,"121.520639,31.276473",[],科教文化服务,科研机构,科研机构,121.520639,31.276473,"121.516277,31.278532",121.516277,31.278532,POINT (121.516277 31.278532),教育
B0FFLAT4BW,同济大学建筑设计研究院(集团)有限公司建筑设计四院,四平路1230号303室,科教文化服务;科教文化场所;科教文化场所,140000,310000,上海市,21,上海市,310110,杨浦区,四平路,"121.507207,31.280649",[],科教文化服务,科教文化场所,科教文化场所,121.507207,31.280649,"121.502798,31.282667",121.502798,31.282667,POINT (121.502798 31.282667),教育
B0FFKCWN4M,同济·姚启明汽车运动与安全研究中心,阜新路彰武大楼西侧约80米,科教文化服务;科教文化场所;科教文化场所,140000,310000,上海市,21,上海市,310110,杨浦区,四平路,"121.508098,31.280823",[],科教文化服务,科教文化场所,科教文化场所,121.508098,31.280823,"121.503692,31.282844",121.503692,31.282844,POINT (121.503692 31.282844),教育
B0FFK6WF21,五洲工程设计研究院,中山北二路1111号同济规划大厦7F,科教文化服务;科教文化场所;科教文化场所,140000,310000,上海市,21,上海市,310110,杨浦区,四平路,"121.505094,31.286418",[],科教文化服务,科教文化场所,科教文化场所,121.505094,31.286418,"121.500676,31.288428",121.500676,31.288428,POINT (121.500676 31.288428),教育
B0FFHH43VV,同济大学空间信息科学及可持续发展应用中心,四平路1239号同济大学,科教文化服务;科研机构;科研机构,141300,310000,上海市,21,上海市,310110,杨浦区,四平路,"121.502666,31.283022",021-65985123,科教文化服务,科研机构,科研机构,121.502666,31.283022,"121.49824,31.285026",121.49824,31.285026,POINT (121.49824 31.285026),教育
B0FFGQIEO0,同济大学结构实验室,四平路1239号同济大学四平路校区,科教文化服务;科研机构;科研机构,141300,310000,上海市,21,上海市,310110,杨浦区,四平路,"121.498622,31.284870",[],科教文化服务,科研机构,科研机构,121.498622,31.28487,"121.494181,31.286861",121.494181,31.286861,POINT (121.494181 31.286861),教育
B0FFGE64GS,教育部城市环境与可持续发展研究中心,四平路1239同济大学,科教文化服务;科研机构;科研机构,141300,310000,上海市,21,上海市,310110,杨浦区,四平路,"121.498741,31.285591",[],科教文化服务,科研机构,科研机构,121.498741,31.285591,"121.494301,31.287582",121.494301,31.287582,POINT (121.494301 31.287582),教育
B0FFGC02LU,景观工程设计院,四平路1230号同济建筑设计研究院203,科教文化服务;科研机构;科研机构,141300,310000,上海市,21,上海市,310110,杨浦区,四平路,"121.507304,31.280547",[],科教文化服务,科研机构,科研机构,121.507304,31.280547,"121.502895,31.282566",121.502895,31.282566,POINT (121.502895 31.282566),教育
B0FFG95NWF,上海市环境与儿童健康重点实验室,控江路1665号新华医院科教楼,科教文化服务;科研机构;科研机构,141300,310000,上海市,21,上海市,310110,杨浦区,四平路,"121.517052,31.274182",[],科教文化服务,科研机构,科研机构,121.517052,31.274182,"121.512678,31.276232",121.512678,31.276232,POINT (121.512678 31.276232),教育
B0FFG4IIPA,同济大学化学工程与可持续发展研究中心,四平路1239号同济大学四平路校区坞浜路附近,科教文化服务;科研机构;科研机构,141300,310000,上海市,21,上海市,310110,杨浦区,四平路,"121.503013,31.284743",[],科教文化服务,科研机构,科研机构,121.503013,31.284743,"121.498588,31.286747",121.498588,31.286747,POINT (121.498588 31.286747),教育
B0FFG4E6GO,中国水产科学研究院渔业机械仪器研究所检测实验室,赤峰路63号沪东科技园,科教文化服务;科研机构;科研机构,141300,310000,上海市,21,上海市,310110,杨浦区,四平路,"121.500957,31.279549",[],科教文化服务,科研机构,科研机构,121.500957,31.279549,"121.496525,31.281549",121.496525,31.281549,POINT (121.496525 31.281549),教育
B0FFFFPMKX,复旦大学杜伦大学联合金融研究中心,国权路600号复旦大学经济学院内,科教文化服务;科研机构;科研机构,141300,310000,上海市,21,上海市,310110,杨浦区,四平路,"121.503761,31.29497",[],科教文化服务,科研机构,科研机构,121.503761,31.29497,"121.499338,31.296972",121.499338,31.296972,POINT (121.499338 31.296972),教育
B0FFFACRNO,上海市特殊人工微结构材料与技术重点实验室(愚慧阁南),赤峰路67号同济大学南校区,科教文化服务;科研机构;科研机构,141300,310000,上海市,21,上海市,310110,杨浦区,四平路,"121.498344,31.278950",[],科教文化服务,科研机构,科研机构,121.498344,31.27895,"121.493903,31.280943",121.493903,31.280943,POINT (121.493903 31.280943),教育
B0FFF2J39R,同济大学土木工程防灾国家重点实验室振动台试验室,四平路1239号同济大学四平路校区,科教文化服务;科研机构;科研机构,141300,310000,上海市,21,上海市,310110,杨浦区,四平路,"121.498923,31.285144",[],科教文化服务,科研机构,科研机构,121.498923,31.285144,"121.494483,31.287136",121.494483,31.287136,POINT (121.494483 31.287136),教育
B0FFF00HWR,同济大学四平路校区海洋地质国家重点实验室,国康路47号同济大学四平路校区海洋楼,科教文化服务;科研机构;科研机构,141300,310000,上海市,21,上海市,310110,杨浦区,四平路,"121.501744,31.285230",[],科教文化服务,科研机构,科研机构,121.501744,31.28523,"121.497314,31.28723",121.497314,31.28723,POINT (121.497314 31.28723),教育
B00157I2S1,上海市特殊人工微结构材料与技术重点实验室,四平路1239号同济大学四平路校区,科教文化服务;科研机构;科研机构,141300,310000,上海市,21,上海市,310110,杨浦区,四平路,"121.501807,31.284035",[],科教文化服务,科研机构,科研机构,121.501807,31.284035,"121.497378,31.286036",121.497378,31.286036,POINT (121.497378 31.286036),教育
B00157I01H,深圳市城市规划设计研究院上海分院,飞虹路568弄43号,科教文化服务;科研机构;科研机构,141300,310000,上海市,21,上海市,310110,杨浦区,四平路,"121.507794,31.267870",[],科教文化服务,科研机构,科研机构,121.507794,31.26787,"121.503388,31.269896",121.503388,31.269896,POINT (121.503388 31.269896),教育
B001576O80,同济大学-转化医学高等研究院,四平路1239号同济大学四平路校区,科教文化服务;科研机构;科研机构,141300,310000,上海市,21,上海市,310110,杨浦区,四平路,"121.501207,31.281357",[],科教文化服务,科研机构,科研机构,121.501207,31.281357,"121.496776,31.283357",121.496776,31.283357,POINT (121.496776 31.283357),教育
B001571M7O,同济大学建筑结构与功能材料实验室(1),国康路46号,科教文化服务;科研机构;科研机构,141300,310000,上海市,21,上海市,310110,杨浦区,四平路,"121.502271,31.283239",[],科教文化服务,科研机构,科研机构,121.502271,31.283239,"121.497843,31.285242",121.497843,31.285242,POINT (121.497843 31.285242),教育
B001570ML0,同济大学-力学实验中心,四平路1239号同济大学四平路校区内,科教文化服务;学校;高等院校,141201,310000,上海市,21,上海市,310110,杨浦区,四平路,"121.502072,31.283642",[],科教文化服务,学校,高等院校,121.502072,31.283642,"121.497644,31.285644",121.497644,31.285644,POINT (121.497644 31.285644),教育
B001570LZC,同济大学微电子中心,赤峰路67号同济大学四平路校区南校区内,科教文化服务;科研机构;科研机构,141300,310000,上海市,21,上海市,310110,杨浦区,四平路,"121.500036,31.278977",[],科教文化服务,科研机构,科研机构,121.500036,31.278977,"121.495601,31.280975",121.495601,31.280975,POINT (121.495601 31.280975),教育
B001570LVA,同济大学污染控制与资源化研究国际重点实验室,四平路1239同济大学,科教文化服务;科研机构;科研机构,141300,310000,上海市,21,上海市,310110,杨浦区,四平路,"121.497252,31.284269",[],科教文化服务,科研机构,科研机构,121.497252,31.284269,"121.492806,31.286256",121.492806,31.286256,POINT (121.492806 31.286256),教育
B001570L2Z,长江水环境教育部重点实验室,四平路1239号同济大学四平路校区生态实验楼,科教文化服务;科研机构;科研机构,141300,310000,上海市,21,上海市,310110,杨浦区,四平路,"121.497299,31.284610",[],科教文化服务,科研机构,科研机构,121.497299,31.28461,"121.492853,31.286597",121.492853,31.286597,POINT (121.492853 31.286597),教育
B001570KWB,同济大学结构试验中心,四平路1239号同济大学四平路校区,科教文化服务;科研机构;科研机构,141300,310000,上海市,21,上海市,310110,杨浦区,四平路,"121.498923,31.285144",[],科教文化服务,科研机构,科研机构,121.498923,31.285144,"121.494483,31.287136",121.494483,31.287136,POINT (121.494483 31.287136),教育
B00156ZOYV,同济大学四平路校区城市污染控制国家工程研究中心,密云路588号同济大学,科教文化服务;科研机构;科研机构,141300,310000,上海市,21,上海市,310110,杨浦区,四平路,"121.496903,31.284584",021-65983868,科教文化服务,科研机构,科研机构,121.496903,31.284584,"121.492456,31.28657",121.492456,31.28657,POINT (121.492456 31.28657),教育
B00155QKP9,国家科技部技术创新战略与管理研究中心(上海培训基地),国定路335号复旦大学上海复旦科技园创业中心22层,科教文化服务;培训机构;培训机构,141400,310000,上海市,21,上海市,310110,杨浦区,四平路,"121.508578,31.296968",[],科教文化服务,培训机构,培训机构,121.508578,31.296968,"121.504172,31.298984",121.504172,31.298984,POINT (121.504172 31.298984),教育
B0FFKTNOJX,脊之源椎究,国定路海鹏公寓,科教文化服务;科教文化场所;科教文化场所,140000,310000,上海市,21,上海市,310110,杨浦区,四平路,"121.517272,31.294314",[],科教文化服务,科教文化场所,科教文化场所,121.517272,31.294314,"121.512897,31.296357",121.512897,31.296357,POINT (121.512897 31.296357),教育
B00155MQJJ,同济大学基础软件工程中心,赤峰路67同济大学南校区,科教文化服务;学校;高等院校,141201,310000,上海市,21,上海市,310110,杨浦区,四平路,"121.499425,31.278320",[],科教文化服务,学校,高等院校,121.499425,31.27832,"121.494988,31.280316",121.494988,31.280316,POINT (121.494988 31.280316),教育
B0FFM955HX,同济大学设计创意学院-设计坪坊,四平路同济大学设计创意学院内,科教文化服务;科教文化场所;科教文化场所,140000,310000,上海市,21,上海市,310110,杨浦区,四平路,"121.506220,31.280808",[],科教文化服务,科教文化场所,科教文化场所,121.50622,31.280808,"121.501807,31.282823",121.501807,31.282823,POINT (121.501807 31.282823),教育
B0FFIGI8XO,上海市产业发展研究和评估中心,国康路96号南裙楼3楼,科教文化服务;科教文化场所;科教文化场所,140000,310000,上海市,21,上海市,310110,杨浦区,四平路,"121.502326,31.286791",[],科教文化服务,科教文化场所,科教文化场所,121.502326,31.286791,"121.497898,31.288792",121.497898,31.288792,POINT (121.497898 31.288792),教育
B0FFGE91FS,乐课力培优(杨浦双辽路校区),双辽路165号2层(近新华医院),科教文化服务;培训机构;培训机构,141400,310000,上海市,21,上海市,310110,杨浦区,四平路,"121.518126,31.270579",[],科教文化服务,培训机构,培训机构,121.518126,31.270579,"121.513756,31.272634",121.513756,31.272634,POINT (121.513756 31.272634),教育
B0FFGTHMLV,上海嘻哈帮街舞(杨浦校区),江浦路1506号4层,科教文化服务;培训机构;培训机构,141400,310000,上海市,21,上海市,310110,杨浦区,四平路,"121.519083,31.273981",021-65670583,科教文化服务,培训机构,培训机构,121.519083,31.273981,"121.514716,31.276037",121.514716,31.276037,POINT (121.514716 31.276037),教育
B0FFI7O8ZX,雨果音乐(海上海店),大连路970号海上海宏基休闲广场9号109室,科教文化服务;培训机构;培训机构,141400,310000,上海市,21,上海市,310110,杨浦区,四平路,"121.507332,31.266234",021-65662191;18621563103,科教文化服务,培训机构,培训机构,121.507332,31.266234,"121.502924,31.268259",121.502924,31.268259,POINT (121.502924 31.268259),教育
B0FFHTOM7J,海文考研(上海杨浦教学中心),国定路335号上海高科技企业杨浦孵化基地1号楼5003室,科教文化服务;培训机构;培训机构,141400,310000,上海市,21,上海市,310110,杨浦区,四平路,"121.508260,31.297305",021-55666892,科教文化服务,培训机构,培训机构,121.50826,31.297305,"121.503853,31.29932",121.503853,31.29932,POINT (121.503853 31.29932),教育
B0FFH4LL4Q,同达插班生(杨浦店),彰武路42号同济联合广场F2层,科教文化服务;培训机构;培训机构,141400,310000,上海市,21,上海市,310110,杨浦区,四平路,"121.507207,31.281301",[],科教文化服务,培训机构,培训机构,121.507207,31.281301,"121.502797,31.283319",121.502797,31.283319,POINT (121.502797 31.283319),教育
B0FFJ2PGHM,上海新祥旭考研,国定路335号创业大厦2号楼1111室,科教文化服务;科教文化场所;科教文化场所,140000,310000,上海市,21,上海市,310110,杨浦区,四平路,"121.508956,31.296282",17600666009,科教文化服务,科教文化场所,科教文化场所,121.508956,31.296282,"121.504551,31.298299",121.504551,31.298299,POINT (121.504551 31.298299),教育
B0FFKX3WH9,億·禾林国际儿童成长中心(杨浦中天中心),四平路1063号中天大厦裙楼三楼,科教文化服务;培训机构;培训机构,141400,310000,上海市,21,上海市,310110,杨浦区,四平路,"121.503050,31.277430",17317165812,科教文化服务,培训机构,培训机构,121.50305,31.27743,"121.498626,31.279437",121.498626,31.279437,POINT (121.498626 31.279437),教育
B0FFM9PW2G,MV舞蹈室,控江路2066号3楼3F,科教文化服务;培训机构;培训机构,141400,310000,上海市,21,上海市,310110,杨浦区,四平路,"121.508915,31.273399",17701672201,科教文化服务,培训机构,培训机构,121.508915,31.273399,"121.504512,31.275426",121.504512,31.275426,POINT (121.504512 31.275426),教育
B0FFLK0OZY,FABLAB O中国数制工坊(同济NICE),四平路1028弄39号,科教文化服务;培训机构;培训机构,141400,310000,上海市,21,上海市,310110,杨浦区,四平路,"121.505348,31.277322",[],科教文化服务,培训机构,培训机构,121.505348,31.277322,"121.500932,31.279336",121.500932,31.279336,POINT (121.500932 31.279336),教育
B0FFKVYKC5,东笙音乐(紫荆广场江浦路店),四平街道控江路1628号紫荆广场三楼L304东,科教文化服务;培训机构;培训机构,141400,310000,上海市,21,上海市,310110,杨浦区,四平路,"121.516757,31.275110",13816826159;13817075107,科教文化服务,培训机构,培训机构,121.516757,31.27511,"121.512382,31.277159",121.512382,31.277159,POINT (121.512382 31.277159),教育
B0FFIUFOJX,少立教育科技(杨浦总校区),国康路46号同济科技大厦710室,科教文化服务;培训机构;培训机构,141400,310000,上海市,21,上海市,310110,杨浦区,四平路,"121.504282,31.286734",[],科教文化服务,培训机构,培训机构,121.504282,31.286734,"121.499861,31.288741",121.499861,31.288741,POINT (121.499861 31.288741),教育
B0FFILE4PM,机器人童星梦工厂,国达路25号,科教文化服务;培训机构;培训机构,141400,310000,上海市,21,上海市,310110,杨浦区,四平路,"121.508886,31.295327",021-35073929,科教文化服务,培训机构,培训机构,121.508886,31.295327,"121.504481,31.297345",121.504481,31.297345,POINT (121.504481 31.297345),教育
B0FFI2Z1N8,美吉姆国际儿童教育中心,四平路街道控江路2068号旭辉MALLF3层3F-10&12,科教文化服务;培训机构;培训机构,141400,310000,上海市,21,上海市,310110,杨浦区,四平路,"121.508535,31.273665",021-60945988;4006027766,科教文化服务,培训机构,培训机构,121.508535,31.273665,"121.504131,31.27569",121.504131,31.27569,POINT (121.504131 31.27569),教育
B0FFHWCKC0,市中教育(总部),大连路970号海上海9号楼3楼(飞虹路),科教文化服务;培训机构;培训机构,141400,310000,上海市,21,上海市,310110,杨浦区,四平路,"121.507133,31.265934",021-65018022,科教文化服务,培训机构,培训机构,121.507133,31.265934,"121.502725,31.267958",121.502725,31.267958,POINT (121.502725 31.267958),教育
B0FFHLSN4U,EKP自然教育指导中心,本溪路191号,科教文化服务;培训机构;培训机构,141400,310000,上海市,21,上海市,310110,杨浦区,四平路,"121.513715,31.275344",021-65126366;4001764328,科教文化服务,培训机构,培训机构,121.513715,31.275344,"121.509329,31.277384",121.509329,31.277384,POINT (121.509329 31.277384),教育
B0FFHL5Q9V,斯坦星球(杨浦紫荆中心),控江路1628号紫荆广场F3层L3-02,科教文化服务;培训机构;培训机构,141400,310000,上海市,21,上海市,310110,杨浦区,四平路,"121.516139,31.274685",4000067279,科教文化服务,培训机构,培训机构,121.516139,31.274685,"121.511762,31.276732",121.511762,31.276732,POINT (121.511762 31.276732),教育
B0FFG61T5A,天明书院,国权路43号财富国际广场银座2层200室,科教文化服务;培训机构;培训机构,141400,310000,上海市,21,上海市,310110,杨浦区,四平路,"121.518961,31.286976",021-55068506,科教文化服务,培训机构,培训机构,121.518961,31.286976,"121.514593,31.289026",121.514593,31.289026,POINT (121.514593 31.289026),教育
B0HA2MNK8C,诠音音乐(本溪路店),本溪路181号3层309-310室,科教文化服务;培训机构;培训机构,141400,310000,上海市,21,上海市,310110,杨浦区,四平路,"121.514177,31.275481",18217168177,科教文化服务,培训机构,培训机构,121.514177,31.275481,"121.509793,31.277522",121.509793,31.277522,POINT (121.509793 31.277522),教育
B0FFI4RHAK,5258艺术空间(海上海·弘基休闲广场D区店),飞虹路525号8楼,科教文化服务;培训机构;培训机构,141400,310000,上海市,21,上海市,310110,杨浦区,四平路,"121.507475,31.266465",15802169501,科教文化服务,培训机构,培训机构,121.507475,31.266465,"121.503068,31.26849",121.503068,31.26849,POINT (121.503068 31.26849),教育
B0FFIW9JIW,小荧星艺校(国权路分部),国权路98号国阳大厦2层,科教文化服务;培训机构;培训机构,141400,310000,上海市,21,上海市,310110,杨浦区,四平路,"121.515651,31.288462",021-35369058;021-51088705;4008217088,科教文化服务,培训机构,培训机构,121.515651,31.288462,"121.511271,31.290502",121.511271,31.290502,POINT (121.511271 31.290502),教育
B0FFIK3L4N,晋风书画院,本溪路280号附近,科教文化服务;培训机构;培训机构,141400,310000,上海市,21,上海市,310110,杨浦区,四平路,"121.512514,31.275006",[],科教文化服务,培训机构,培训机构,121.512514,31.275006,"121.508124,31.277043",121.508124,31.277043,POINT (121.508124 31.277043),教育
B0FFGE5BQ1,上海市商务教育培训中心(国科路),国科路75号,科教文化服务;培训机构;培训机构,141400,310000,上海市,21,上海市,310110,杨浦区,四平路,"121.518164,31.286456",[],科教文化服务,培训机构,培训机构,121.518164,31.286456,"121.513793,31.288504",121.513793,31.288504,POINT (121.513793 31.288504),教育
B0FFL9KR92,维纳音乐,彰武路53号,科教文化服务;培训机构;培训机构,141400,310000,上海市,21,上海市,310110,杨浦区,四平路,"121.509581,31.281374",[],科教文化服务,培训机构,培训机构,121.509581,31.281374,"121.50518,31.283399",121.50518,31.283399,POINT (121.50518 31.283399),教育
B0FFI76IAF,得艺术,控江路2075号贵人大厦8楼815室,科教文化服务;培训机构;培训机构,141400,310000,上海市,21,上海市,310110,杨浦区,四平路,"121.507507,31.270861",13564659919,科教文化服务,培训机构,培训机构,121.507507,31.270861,"121.503099,31.272884",121.503099,31.272884,POINT (121.503099 31.272884),教育
B00155D03J,复旦外文学院培训中心,邯郸路220号复旦大学(邯郸校区)内,科教文化服务;培训机构;培训机构,141400,310000,上海市,21,上海市,310110,杨浦区,四平路,"121.504686,31.295783",021-65642709,科教文化服务,培训机构,培训机构,121.504686,31.295783,"121.500266,31.297788",121.500266,31.297788,POINT (121.500266 31.297788),教育
B0GDRYC196,安斋-空间(五角场自习室),国定路335号2号楼716室,科教文化服务;培训机构;培训机构,141400,310000,上海市,21,上海市,310110,杨浦区,四平路,"121.508801,31.296997",17192186603,科教文化服务,培训机构,培训机构,121.508801,31.296997,"121.504396,31.299014",121.504396,31.299014,POINT (121.504396 31.299014),教育
B0HGCHII45,乐苏书房乐文学堂,抚顺路226-228,科教文化服务;培训机构;培训机构,141400,310000,上海市,21,上海市,310110,杨浦区,四平路,"121.515983,31.280724",18519095018,科教文化服务,培训机构,培训机构,121.515983,31.280724,"121.511605,31.282768",121.511605,31.282768,POINT (121.511605 31.282768),教育
B0HG0L3NSQ,全欧语言中心(上海同济校区),国康路46号同济科技大厦12楼1218室,科教文化服务;培训机构;培训机构,141400,310000,上海市,21,上海市,310110,杨浦区,四平路,"121.504059,31.286846",[],科教文化服务,培训机构,培训机构,121.504059,31.286846,"121.499638,31.288852",121.499638,31.288852,POINT (121.499638 31.288852),教育
B0GRK54BGK,Iris Ballet Studio英皇芭蕾,黄兴路1731号九隆坊二层207.208室,科教文化服务;培训机构;培训机构,141400,310000,上海市,21,上海市,310110,杨浦区,四平路,"121.519174,31.290936",15000667535,科教文化服务,培训机构,培训机构,121.519174,31.290936,"121.514806,31.292985",121.514806,31.292985,POINT (121.514806 31.292985),教育
B0FFIRYDUC,噗噗学堂(密云路店),密云路1018号7号楼703-704(复旦科技园内),科教文化服务;培训机构;培训机构,141400,310000,上海市,21,上海市,310110,杨浦区,四平路,"121.503676,31.288197",15001928772;19901799135,科教文化服务,培训机构,培训机构,121.503676,31.288197,"121.499253,31.290202",121.499253,31.290202,POINT (121.499253 31.290202),教育
B0FFHD7TYX,同研辅导中心,赤峰路65号2号楼,科教文化服务;培训机构;培训机构,141400,310000,上海市,21,上海市,310110,杨浦区,四平路,"121.500292,31.279883",[],科教文化服务,培训机构,培训机构,121.500292,31.279883,"121.495858,31.281881",121.495858,31.281881,POINT (121.495858 31.281881),教育
B0G1SK6EYS,卡内基训练(上海总部),国定路335号1号楼10010室,科教文化服务;培训机构;培训机构,141400,310000,上海市,21,上海市,310110,杨浦区,四平路,"121.508746,31.297215",021-33626788,科教文化服务,培训机构,培训机构,121.508746,31.297215,"121.504341,31.299231",121.504341,31.299231,POINT (121.504341 31.299231),教育
B0FFH91FMN,丹托艺术世界(五角场校区),国达路与政肃路交叉口北80米,科教文化服务;培训机构;培训机构,141400,310000,上海市,21,上海市,310110,杨浦区,四平路,"121.508751,31.296371",[],科教文化服务,培训机构,培训机构,121.508751,31.296371,"121.504346,31.298388",121.504346,31.298388,POINT (121.504346 31.298388),教育
B0FFH0UJS8,五星教育学前部(本溪路校区),本溪路280号4层,科教文化服务;培训机构;培训机构,141400,310000,上海市,21,上海市,310110,杨浦区,四平路,"121.512554,31.274958",021-55065050,科教文化服务,培训机构,培训机构,121.512554,31.274958,"121.508164,31.276995",121.508164,31.276995,POINT (121.508164 31.276995),教育
B0FFGJ7KBK,上海市同路人教育培训有限公司,国顺路131弄10号楼复华商业大厦,科教文化服务;培训机构;培训机构,141400,310000,上海市,21,上海市,310110,杨浦区,四平路,"121.515269,31.290046",021-51877118,科教文化服务,培训机构,培训机构,121.515269,31.290046,"121.510887,31.292084",121.510887,31.292084,POINT (121.510887 31.292084),教育
B0FFJ8RCP3,帝奇教育,铁岭路32号同叶大厦309室,科教文化服务;培训机构;培训机构,141400,310000,上海市,21,上海市,310110,杨浦区,四平路,"121.514556,31.278144",021-55895618;18116205582,科教文化服务,培训机构,培训机构,121.514556,31.278144,"121.510173,31.280185",121.510173,31.280185,POINT (121.510173 31.280185),教育
B0FFIPFR4F,上海复迅学校,四平路2500号金岛大厦六楼,科教文化服务;科教文化场所;科教文化场所,140000,310000,上海市,21,上海市,310110,杨浦区,四平路,"121.515779,31.298696",021-31261119,科教文化服务,科教文化场所,科教文化场所,121.515779,31.298696,"121.511399,31.300732",121.511399,31.300732,POINT (121.511399 31.300732),教育
B0G3FZHHSR,天琥教育(上海杨浦校区),鞍山路5号杨浦商城25层-b3,科教文化服务;培训机构;培训机构,141400,310000,上海市,21,上海市,310110,杨浦区,四平路,"121.512829,31.274240",18211333078;021-60340261;021-60340262,科教文化服务,培训机构,培训机构,121.512829,31.27424,"121.50844,31.276278",121.50844,31.276278,POINT (121.50844 31.276278),教育
B0G2348CGN,毓秀灵飞硬笔毛笔(杨浦校区),控江路2061号东座707室(控江路打虎山路路口五环大厦),科教文化服务;培训机构;培训机构,141400,310000,上海市,21,上海市,310110,杨浦区,四平路,"121.508276,31.271483",021-32036210,科教文化服务,培训机构,培训机构,121.508276,31.271483,"121.503871,31.273508",121.503871,31.273508,POINT (121.503871 31.273508),教育
B0FFJGPI4Y,墨舞少儿舞蹈馆(旭辉广场店),四平路街道控江路2068号旭辉MALLF2层2F-17,科教文化服务;培训机构;培训机构,141400,310000,上海市,21,上海市,310110,杨浦区,四平路,"121.509034,31.273802",13816949120,科教文化服务,培训机构,培训机构,121.509034,31.273802,"121.504632,31.275829",121.504632,31.275829,POINT (121.504632 31.275829),教育
B0FFHUMS1Z,星位围棋俱乐部(和平公园店),控江路2061号五环大厦东座1009室,科教文化服务;培训机构;培训机构,141400,310000,上海市,21,上海市,310110,杨浦区,四平路,"121.508563,31.271702",13818013745,科教文化服务,培训机构,培训机构,121.508563,31.271702,"121.504159,31.273728",121.504159,31.273728,POINT (121.504159 31.273728),教育
B0IBOSJCBU,乐艺创享艺术中心,大连路1548号莱克大厦2门3楼310-311室,科教文化服务;培训机构;培训机构,141400,310000,上海市,21,上海市,310110,杨浦区,四平路,"121.503303,31.273479",[],科教文化服务,培训机构,培训机构,121.503303,31.273479,"121.49888,31.275489",121.49888,31.275489,POINT (121.49888 31.275489),教育
B0HU7MYRF6,星艺绘艺术教育,控江路2075号贵人大厦705室,科教文化服务;培训机构;培训机构,141400,310000,上海市,21,上海市,310110,杨浦区,四平路,"121.507516,31.270877",18121121752,科教文化服务,培训机构,培训机构,121.507516,31.270877,"121.503108,31.2729",121.503108,31.2729,POINT (121.503108 31.2729),教育
B0GRGSQUD8,初心教育,国定东路335号2号楼2408室,科教文化服务;培训机构;培训机构,141400,310000,上海市,21,上海市,310110,杨浦区,四平路,"121.509171,31.296441",021-55580718,科教文化服务,培训机构,培训机构,121.509171,31.296441,"121.504767,31.298459",121.504767,31.298459,POINT (121.504767 31.298459),教育
B0GRD9JP5W,KE英语(KrownEnglish),大连路970号9号楼103室,科教文化服务;培训机构;培训机构,141400,310000,上海市,21,上海市,310110,杨浦区,四平路,"121.507645,31.265753",021-65060568;17321289320,科教文化服务,培训机构,培训机构,121.507645,31.265753,"121.503238,31.267779",121.503238,31.267779,POINT (121.503238 31.267779),教育
B0GKKSYBE6,复培书院(H2016学习中心),国权路525号复旦大学复华科技楼主楼2楼,科教文化服务;培训机构;培训机构,141400,310000,上海市,21,上海市,310110,杨浦区,四平路,"121.503367,31.293512",021-55660395,科教文化服务,培训机构,培训机构,121.503367,31.293512,"121.498943,31.295514",121.498943,31.295514,POINT (121.498943 31.295514),教育
B0GDV77N5A,三才培训中心·见老师,大连路1548号503室,科教文化服务;培训机构;培训机构,141400,310000,上海市,21,上海市,310110,杨浦区,四平路,"121.503668,31.273404",15155108855;18930388812,科教文化服务,培训机构,培训机构,121.503668,31.273404,"121.499246,31.275415",121.499246,31.275415,POINT (121.499246 31.275415),教育
B0G1XCI3MK,尚轻松练字旗舰店,大连路990号207室,科教文化服务;培训机构;培训机构,141400,310000,上海市,21,上海市,310110,杨浦区,四平路,"121.507725,31.265374",021-65250951,科教文化服务,培训机构,培训机构,121.507725,31.265374,"121.503319,31.2674",121.503319,31.2674,POINT (121.503319 31.2674),教育
B0FFKQAB6O,odds形象服搭课堂,国定路335号2号楼1101室,科教文化服务;培训机构;培训机构,141400,310000,上海市,21,上海市,310110,杨浦区,四平路,"121.508623,31.297241",18516022922,科教文化服务,培训机构,培训机构,121.508623,31.297241,"121.504217,31.299257",121.504217,31.299257,POINT (121.504217 31.299257),教育
B0FFJM8B7Y,复旦大学宁波研究院(上海)教育中心,国定路335号2号楼6层,科教文化服务;科教文化场所;科教文化场所,140000,310000,上海市,21,上海市,310110,杨浦区,四平路,"121.508673,31.297022",021-55080393;4008508005,科教文化服务,科教文化场所,科教文化场所,121.508673,31.297022,"121.504267,31.299038",121.504267,31.299038,POINT (121.504267 31.299038),教育
B0HROXQOYD,海狮24小时自习室·共享学习中心,黄兴路与国定路交叉口西南约80米,科教文化服务;培训机构;培训机构,141400,310000,上海市,21,上海市,310110,杨浦区,四平路,"121.517847,31.293655",[],科教文化服务,培训机构,培训机构,121.517847,31.293655,"121.513474,31.295699",121.513474,31.295699,POINT (121.513474 31.295699),教育
B0H6P6KXND,梧桐书画学院,国定路335号2号楼704室,科教文化服务;培训机构;培训机构,141400,310000,上海市,21,上海市,310110,杨浦区,四平路,"121.508828,31.296675",13501826153,科教文化服务,培训机构,培训机构,121.508828,31.296675,"121.504423,31.298692",121.504423,31.298692,POINT (121.504423 31.298692),教育
B0FFJO5HAJ,群鹦说(旭辉Mall),四平路街道控江路2068号旭辉MALLF2层2F-25,科教文化服务;培训机构;培训机构,141400,310000,上海市,21,上海市,310110,杨浦区,四平路,"121.508889,31.273557",[],科教文化服务,培训机构,培训机构,121.508889,31.273557,"121.504486,31.275583",121.504486,31.275583,POINT (121.504486 31.275583),教育
B0FFIGDI8W,胡荣华教育培训,控江路2061号附近,科教文化服务;培训机构;培训机构,141400,310000,上海市,21,上海市,310110,杨浦区,四平路,"121.508600,31.271540",[],科教文化服务,培训机构,培训机构,121.5086,31.27154,"121.504196,31.273566",121.504196,31.273566,POINT (121.504196 31.273566),教育
B0FFI2BV21,億智未来(杨浦中心),四平路1063号上海中天大厦裙楼三楼,科教文化服务;培训机构;培训机构,141400,310000,上海市,21,上海市,310110,杨浦区,四平路,"121.503117,31.277632",021-65559799,科教文化服务,培训机构,培训机构,121.503117,31.277632,"121.498693,31.279639",121.498693,31.279639,POINT (121.498693 31.279639),教育
B0FFGOHGXB,上海市铁岭中学-上海师源教育,四平路街道鞍山路300号18幢,科教文化服务;培训机构;培训机构,141400,310000,上海市,21,上海市,310110,杨浦区,四平路,"121.509610,31.278875",[],科教文化服务,培训机构,培训机构,121.50961,31.278875,"121.505209,31.280901",121.505209,31.280901,POINT (121.505209 31.280901),教育
B001572ACM,亦歌书院,控江路紫荆广场(江浦路店),科教文化服务;培训机构;培训机构,141400,310000,上海市,21,上海市,310110,杨浦区,四平路,"121.517382,31.275137",[],科教文化服务,培训机构,培训机构,121.517382,31.275137,"121.513009,31.277188",121.513009,31.277188,POINT (121.513009 31.277188),教育
B0FFHE3YKM,海上艺号,赤峰路63号创意设计工场2号楼5层,科教文化服务;培训机构;培训机构,141400,310000,上海市,21,上海市,310110,杨浦区,四平路,"121.501441,31.279839",021-65976132,科教文化服务,培训机构,培训机构,121.501441,31.279839,"121.497011,31.281841",121.497011,31.281841,POINT (121.497011 31.281841),教育
B0FFL5A2I9,硕渡考研,国定路335号1号楼8004室,科教文化服务;培训机构;培训机构,141400,310000,上海市,21,上海市,310110,杨浦区,四平路,"121.508198,31.297415",18516015825,科教文化服务,培训机构,培训机构,121.508198,31.297415,"121.503791,31.29943",121.503791,31.29943,POINT (121.503791 31.29943),教育
B00155M5HH,复旦大学大家沙龙,邯郸路220弄33幢本部超市隔壁,科教文化服务;科教文化场所;科教文化场所,140000,310000,上海市,21,上海市,310110,杨浦区,四平路,"121.502415,31.292307",18500463589,科教文化服务,科教文化场所,科教文化场所,121.502415,31.292307,"121.497987,31.294306",121.497987,31.294306,POINT (121.497987 31.294306),教育
B0GRD9LFS2,MusicLife音乐(杨浦校区),四平路2500号金岛大厦1604室,科教文化服务;培训机构;培训机构,141400,310000,上海市,21,上海市,310110,杨浦区,四平路,"121.515663,31.298754",17721196447;17321032336,科教文化服务,培训机构,培训机构,121.515663,31.298754,"121.511282,31.30079",121.511282,31.30079,POINT (121.511282 31.30079),教育
B0GU49VTR9,上海纹绣学校,国泰路11号复旦科技园大厦1808室,科教文化服务;培训机构;培训机构,141400,310000,上海市,21,上海市,310110,杨浦区,四平路,"121.507793,31.288087",16621701905,科教文化服务,培训机构,培训机构,121.507793,31.288087,"121.503385,31.290104",121.503385,31.290104,POINT (121.503385 31.290104),教育
B0FFFP9RUR,上海复旦托业教育培训中心,国权路525号复华科技大楼3层,科教文化服务;培训机构;培训机构,141400,310000,上海市,21,上海市,310110,杨浦区,四平路,"121.503595,31.293685",021-55666090;021-55666732,科教文化服务,培训机构,培训机构,121.503595,31.293685,"121.499171,31.295687",121.499171,31.295687,POINT (121.499171 31.295687),教育
B00156O7B5,罗兰数字音乐教育(杨浦校区),飞虹路568弄海上海弘基休闲广场E8座,科教文化服务;培训机构;培训机构,141400,310000,上海市,21,上海市,310110,杨浦区,四平路,"121.507854,31.265685",021-33775100;4008207780,科教文化服务,培训机构,培训机构,121.507854,31.265685,"121.503448,31.267712",121.503448,31.267712,POINT (121.503448 31.267712),教育
B0HAKZHQF0,乐苏书法工作室,抚顺路226-228号,科教文化服务;培训机构;培训机构,141400,310000,上海市,21,上海市,310110,杨浦区,四平路,"121.515850,31.280588",13636591717,科教文化服务,培训机构,培训机构,121.51585,31.280588,"121.511471,31.282632",121.511471,31.282632,POINT (121.511471 31.282632),教育
B0H1OOVW02,上海爱说教育培训有限公司(九隆坊生活广场店),黄兴路1737号九隆坊生活广场F1,科教文化服务;培训机构;培训机构,141400,310000,上海市,21,上海市,310110,杨浦区,四平路,"121.519077,31.291054",[],科教文化服务,培训机构,培训机构,121.519077,31.291054,"121.514709,31.293103",121.514709,31.293103,POINT (121.514709 31.293103),教育
B0FFM93FAU,历圣教育,号国定路335号1号楼,科教文化服务;培训机构;培训机构,141400,310000,上海市,21,上海市,310110,杨浦区,四平路,"121.508297,31.297327",[],科教文化服务,培训机构,培训机构,121.508297,31.297327,"121.50389,31.299342",121.50389,31.299342,POINT (121.50389 31.299342),教育
B0FFIVUPCV,儒群教育,大连路1548号莱克大厦212室,科教文化服务;培训机构;培训机构,141400,310000,上海市,21,上海市,310110,杨浦区,四平路,"121.503647,31.273438",[],科教文化服务,培训机构,培训机构,121.503647,31.273438,"121.499225,31.275449",121.499225,31.275449,POINT (121.499225 31.275449),教育
B0FFIIS1M7,语莲堂国学书法工作室,四平路1188号远洋广场17楼,科教文化服务;培训机构;培训机构,141400,310000,上海市,21,上海市,310110,杨浦区,四平路,"121.504651,31.277918",13917436134,科教文化服务,培训机构,培训机构,121.504651,31.277918,"121.500233,31.27993",121.500233,31.27993,POINT (121.500233 31.27993),教育
B0FFI91HV7,鑫峰培训,阜新路国中公寓,科教文化服务;培训机构;培训机构,141400,310000,上海市,21,上海市,310110,杨浦区,四平路,"121.504423,31.273227",[],科教文化服务,培训机构,培训机构,121.504423,31.273227,"121.500004,31.27524",121.500004,31.27524,POINT (121.500004 31.27524),教育
B0FFHGYTTZ,叁陆零教育,四平路1063号中天大厦13楼,科教文化服务;培训机构;培训机构,141400,310000,上海市,21,上海市,310110,杨浦区,四平路,"121.503103,31.277451",021-65987988;4008941360,科教文化服务,培训机构,培训机构,121.503103,31.277451,"121.498679,31.279458",121.498679,31.279458,POINT (121.498679 31.279458),教育
B0FFGE64IJ,同济大学四平路校区岩土及地下工程教育部重点实验室隧道结构与岩体地下工程物理模型试验平台,中山北二路与密云路交叉口东100米,科教文化服务;科研机构;科研机构,141300,310000,上海市,21,上海市,310110,杨浦区,四平路,"121.498129,31.285776",[],科教文化服务,科研机构,科研机构,121.498129,31.285776,"121.493686,31.287765",121.493686,31.287765,POINT (121.493686 31.287765),教育
B0FFHO1GT9,复旦大学邯郸校区-南娱舞蹈,政肃路附近,科教文化服务;培训机构;培训机构,141400,310000,上海市,21,上海市,310110,杨浦区,四平路,"121.502161,31.292251",[],科教文化服务,培训机构,培训机构,121.502161,31.292251,"121.497732,31.29425",121.497732,31.29425,POINT (121.497732 31.29425),教育
B0H1HHSR49,吉天教育,国顺路126-3号(近政本路),科教文化服务;培训机构;培训机构,141400,310000,上海市,21,上海市,310110,杨浦区,四平路,"121.514291,31.290880",021-65667175;13761046461,科教文化服务,培训机构,培训机构,121.514291,31.29088,"121.509906,31.292915",121.509906,31.292915,POINT (121.509906 31.292915),教育
B0FFITJWJV,乐动创想科技中心(四平店),大连路1548号莱克大厦群楼4楼,科教文化服务;培训机构;培训机构,141400,310000,上海市,21,上海市,310110,杨浦区,四平路,"121.503649,31.273446",021-65233133,科教文化服务,培训机构,培训机构,121.503649,31.273446,"121.499227,31.275457",121.499227,31.275457,POINT (121.499227 31.275457),教育
B0FFJHKDFP,赢在起点早教中心(杨浦控江旭辉),控江路2068号旭辉广场2楼(打虎山路口),科教文化服务;培训机构;培训机构,141400,310000,上海市,21,上海市,310110,杨浦区,四平路,"121.509067,31.273503",4008880268,科教文化服务,培训机构,培训机构,121.509067,31.273503,"121.504665,31.27553",121.504665,31.27553,POINT (121.504665 31.27553),教育
B0IBF504SY,弈乐园围棋体验中心,莱克大厦大连路1548号302室,科教文化服务;培训机构;培训机构,141400,310000,上海市,21,上海市,310110,杨浦区,四平路,"121.503290,31.273477",19121189501,科教文化服务,培训机构,培训机构,121.50329,31.273477,"121.498867,31.275487",121.498867,31.275487,POINT (121.498867 31.275487),教育
B0H1O9UUA4,乐宁少儿素养中心,控江路与鞍山路交叉口东约80米,科教文化服务;培训机构;培训机构,141400,310000,上海市,21,上海市,310110,杨浦区,四平路,"121.514177,31.273464",[],科教文化服务,培训机构,培训机构,121.514177,31.273464,"121.509793,31.275506",121.509793,31.275506,POINT (121.509793 31.275506),教育
B0GKUXMOBB,小玉艺树少儿美术绘画坊,富庆国定大厦606室,科教文化服务;培训机构;培训机构,141400,310000,上海市,21,上海市,310110,杨浦区,四平路,"121.513618,31.294683",18896939392,科教文化服务,培训机构,培训机构,121.513618,31.294683,"121.50923,31.296715",121.50923,31.296715,POINT (121.50923 31.296715),教育
B0FFG29RFF,上海市舒缓疗护培训基地,控江路1663附近,科教文化服务;培训机构;培训机构,141400,310000,上海市,21,上海市,310110,杨浦区,四平路,"121.517018,31.274221",[],科教文化服务,培训机构,培训机构,121.517018,31.274221,"121.512644,31.276271",121.512644,31.276271,POINT (121.512644 31.276271),教育
B00155FKYO,上海市职业教育开放实训中心(四平路),四平路43、1149,科教文化服务;培训机构;培训机构,141400,310000,上海市,21,上海市,310110,杨浦区,四平路,"121.504099,31.278357",[],科教文化服务,培训机构,培训机构,121.504099,31.278357,"121.499679,31.280367",121.499679,31.280367,POINT (121.499679 31.280367),教育
B0FFFWQAC3,育鹰学校,政本路108号,科教文化服务;学校;学校,141200,310000,上海市,21,上海市,310110,杨浦区,四平路,"121.515629,31.292022",[],科教文化服务,学校,学校,121.515629,31.292022,"121.511249,31.294061",121.511249,31.294061,POINT (121.511249 31.294061),教育
B00151A726,复旦大学国际学术交流中心,邯郸路199号上海复旦皇冠假日酒店,科教文化服务;学校;高等院校,141201,310000,上海市,21,上海市,310110,杨浦区,四平路,"121.502183,31.2949",[],科教文化服务,学校,高等院校,121.502183,31.2949,"121.497754,31.296898",121.497754,31.296898,POINT (121.497754 31.296898),教育
B0HRVR16YQ,上海贝贝威培训学校有限公司(紫荆广场江浦路店),控江路1688号紫荆广场F3,科教文化服务;培训机构;培训机构,141400,310000,上海市,21,上海市,310110,杨浦区,四平路,"121.517565,31.275200",[],科教文化服务,培训机构,培训机构,121.517565,31.2752,"121.513193,31.277251",121.513193,31.277251,POINT (121.513193 31.277251),教育
B0HA6Y8DBK,V6学乐课堂,锦西路鞍山四村第三小区南侧,科教文化服务;培训机构;培训机构,141400,310000,上海市,21,上海市,310110,杨浦区,四平路,"121.508267,31.274050",[],科教文化服务,培训机构,培训机构,121.508267,31.27405,"121.503862,31.276074",121.503862,31.276074,POINT (121.503862 31.276074),教育
B0FFLBZF6C,ACG国际艺术教育(同济校区),四平路1388号同济联合广场C座1009室,科教文化服务;培训机构;培训机构,141400,310000,上海市,21,上海市,310110,杨浦区,四平路,"121.507571,31.281342",[],科教文化服务,培训机构,培训机构,121.507571,31.281342,"121.503163,31.283361",121.503163,31.283361,POINT (121.503163 31.283361),教育
B0FFKHFXJS,胜开乐学晚托班寒暑托班,大连路与阜新路交叉口北约60米,科教文化服务;培训机构;培训机构,141400,310000,上海市,21,上海市,310110,杨浦区,四平路,"121.503642,31.273484",[],科教文化服务,培训机构,培训机构,121.503642,31.273484,"121.49922,31.275495",121.49922,31.275495,POINT (121.49922 31.275495),教育
B0FFJRWFTM,工程硕士教学管理中心,彰武路1号同济大厦A619,科教文化服务;科教文化场所;科教文化场所,140000,310000,上海市,21,上海市,310110,杨浦区,四平路,"121.507280,31.282616",[],科教文化服务,科教文化场所,科教文化场所,121.50728,31.282616,"121.502871,31.284634",121.502871,31.284634,POINT (121.502871 31.284634),教育
B0FFFHB4KP,同济大学学术报告厅,四平路1239号同济大学四平路校区逸夫楼2层,科教文化服务;学校;学校内部设施|科教文化服务;会展中心;会展中心,141207|140300,310000,上海市,21,上海市,310110,杨浦区,四平路,"121.505560,31.282054",[],科教文化服务,学校,学校内部设施|科教文化服务,121.50556,31.282054,"121.501144,31.284067",121.501144,31.284067,POINT (121.501144 31.284067),教育
B00156ZYMO,同济大学校史馆,四平路1239号同济大学四平路校区内,科教文化服务;学校;高等院校,141201,310000,上海市,21,上海市,310110,杨浦区,四平路,"121.506606,31.283634",021-65981073,科教文化服务,学校,高等院校,121.506606,31.283634,"121.502194,31.285649",121.502194,31.285649,POINT (121.502194 31.285649),教育
B00155QKPA,上海市铁岭中学,鞍山路300号(鞍山路鞍山支路),科教文化服务;学校;中学,141202,310000,上海市,21,上海市,310110,杨浦区,四平路,"121.510448,31.279313",021-65139100,科教文化服务,学校,中学,121.510448,31.279313,"121.50605,31.281342",121.50605,31.281342,POINT (121.50605 31.281342),教育
B00155HD0T,凯慧中学,大连路1530号(控江路附近),科教文化服务;学校;中学,141202,310000,上海市,21,上海市,310110,杨浦区,四平路,"121.50547,31.272218",021-65047200,科教文化服务,学校,中学,121.50547,31.272218,"121.501055,31.274235",121.501055,31.274235,POINT (121.501055 31.274235),教育
B0HA6CC3CO,子院升学初中部(杨浦),铁岭路同叶大厦,科教文化服务;培训机构;培训机构,141400,310000,上海市,21,上海市,310110,杨浦区,四平路,"121.514263,31.278144",13817067771;18821213690,科教文化服务,培训机构,培训机构,121.514263,31.278144,"121.509879,31.280184",121.509879,31.280184,POINT (121.509879 31.280184),教育
B0H259OP81,卓越全日制中高考学校(江浦路校区),江浦路与控江路交叉口西北约100米,科教文化服务;培训机构;培训机构,141400,310000,上海市,21,上海市,310110,杨浦区,四平路,"121.517927,31.275707",[],科教文化服务,培训机构,培训机构,121.517927,31.275707,"121.513556,31.277759",121.513556,31.277759,POINT (121.513556 31.277759),教育
B0FFF00HWY,同济大学同济科教技术物资公司,四平路1239号同济大学四平路校区,科教文化服务;学校;高等院校|公司企业;公司;公司,141201|170200,310000,上海市,21,上海市,310110,杨浦区,四平路,"121.498454,31.281037",021-65981969,科教文化服务,学校,高等院校|公司企业,121.498454,31.281037,"121.494013,31.283029",121.494013,31.283029,POINT (121.494013 31.283029),教育
B0H1TCI7P3,上海鸣特佳培训学校有限公司(九隆坊生活广场店),黄兴路1737号九隆坊生活广场F3,科教文化服务;培训机构;培训机构,141400,310000,上海市,21,上海市,310110,杨浦区,四平路,"121.519266,31.290989",4000303096,科教文化服务,培训机构,培训机构,121.519266,31.290989,"121.514898,31.293039",121.514898,31.293039,POINT (121.514898 31.293039),教育
B0FFGVZH5D,悠悠加米创意美术(黄兴校区),黄兴路1737号九隆坊2楼266铺,科教文化服务;培训机构;培训机构|生活服务;美容美发店;美容美发店,141400|071100,310000,上海市,21,上海市,310110,杨浦区,四平路,"121.519130,31.291168",021-31151736;021-31151735,科教文化服务,培训机构,培训机构|生活服务,121.51913,31.291168,"121.514762,31.293217",121.514762,31.293217,POINT (121.514762 31.293217),教育
B0FFK4E1TS,上海开放大学-招生报名热线,阜新路25号,科教文化服务;学校;成人教育|生活服务;生活服务场所;生活服务场所,141205|070000,310000,上海市,21,上海市,310110,杨浦区,四平路,"121.504589,31.273873",021-25653114,科教文化服务,学校,成人教育|生活服务,121.504589,31.273873,"121.500171,31.275886",121.500171,31.275886,POINT (121.500171 31.275886),教育
B00156EOP7,上海市昆明学校小学部,大连路854弄20号,科教文化服务;学校;小学,141203,310000,上海市,21,上海市,310110,杨浦区,四平路,"121.50916,31.264192",[],科教文化服务,学校,小学,121.50916,31.264192,"121.504759,31.266223",121.504759,31.266223,POINT (121.504759 31.266223),教育
B0FFI2WGYL,复旦大学继续教育学院分部,复旦大学高等教育自学考试办公室国年路25弄小区四平路1931号,科教文化服务;学校;成人教育,141205,310000,上海市,21,上海市,310110,杨浦区,四平路,"121.510102,31.290068",[],科教文化服务,学校,成人教育,121.510102,31.290068,"121.505702,31.292091",121.505702,31.292091,POINT (121.505702 31.292091),教育
B0FFJVKRWQ,上海市杨浦区教育学院,抚顺路340号,科教文化服务;学校;成人教育,141205,310000,上海市,21,上海市,310110,杨浦区,四平路,"121.512126,31.279415",021-65035057,科教文化服务,学校,成人教育,121.512126,31.279415,"121.507734,31.281449",121.507734,31.281449,POINT (121.507734 31.281449),教育
B0FFFWQI0N,上海商学院国科路校区,国科路75号,科教文化服务;学校;高等院校,141201,310000,上海市,21,上海市,310110,杨浦区,四平路,"121.517066,31.285793",021-55069146,科教文化服务,学校,高等院校,121.517066,31.285793,"121.512691,31.287838",121.512691,31.287838,POINT (121.512691 31.287838),教育
B0FFFPD3YJ,同济大学(建筑与城市规划学院)钟庭报告厅,国康路44附近,科教文化服务;学校;高等院校,141201,310000,上海市,21,上海市,310110,杨浦区,四平路,"121.504573,31.285382",[],科教文化服务,学校,高等院校,121.504573,31.285382,"121.500154,31.287391",121.500154,31.287391,POINT (121.500154 31.287391),教育
B00156NSWH,上海开放大学直属开放教育学院阜新校区,阜新路25号,科教文化服务;学校;高等院校,141201,310000,上海市,21,上海市,310110,杨浦区,四平路,"121.504348,31.273971",[],科教文化服务,学校,高等院校,121.504348,31.273971,"121.499929,31.275984",121.499929,31.275984,POINT (121.499929 31.275984),教育
B00156F6VY,上海商学院高等技术学院赤峰路院区,赤峰路43号(近四平路),科教文化服务;学校;高等院校,141201,310000,上海市,21,上海市,310110,杨浦区,四平路,"121.503275,31.279182",[],科教文化服务,学校,高等院校,121.503275,31.279182,"121.498851,31.281189",121.498851,31.281189,POINT (121.498851 31.281189),教育
B00155M18U,同济大学彰武路校区,彰武路100号,科教文化服务;学校;高等院校,141201,310000,上海市,21,上海市,310110,杨浦区,四平路,"121.513244,31.282003",[],科教文化服务,学校,高等院校,121.513244,31.282003,"121.508856,31.284039",121.508856,31.284039,POINT (121.508856 31.284039),教育
B0FFHO1GIR,复旦大学南区北看台,邯郸路220号复旦大学(邯郸校区)内,科教文化服务;学校;高等院校,141201,310000,上海市,21,上海市,310110,杨浦区,四平路,"121.502457,31.291628",[],科教文化服务,学校,高等院校,121.502457,31.291628,"121.498029,31.293628",121.498029,31.293628,POINT (121.498029 31.293628),教育
B0FFH80BCD,复泰实战商学院,国权路525号复华科技大楼5层,科教文化服务;培训机构;培训机构,141400,310000,上海市,21,上海市,310110,杨浦区,四平路,"121.503572,31.293728",[],科教文化服务,培训机构,培训机构,121.503572,31.293728,"121.499148,31.29573",121.499148,31.29573,POINT (121.499148 31.29573),教育
B0FFGAR1EJ,复旦大学南区南看台,邯郸路220号复旦大学(邯郸校区)内,科教文化服务;学校;高等院校,141201,310000,上海市,21,上海市,310110,杨浦区,四平路,"121.502424,31.291009",[],科教文化服务,学校,高等院校,121.502424,31.291009,"121.497996,31.293009",121.497996,31.293009,POINT (121.497996 31.293009),教育
B0FFHQEQLQ,D艺能量教室,铁岭路32号同叶大厦304室,科教文化服务;培训机构;培训机构,141400,310000,上海市,21,上海市,310110,杨浦区,四平路,"121.514534,31.278026",021-55580513;17317631733,科教文化服务,培训机构,培训机构,121.514534,31.278026,"121.510151,31.280067",121.510151,31.280067,POINT (121.510151 31.280067),教育
B0FFMHEMYM,Tú·ART涂涂笔芯·少儿艺术(紫荆广场中心),控江路1628号紫荆广场西区3层303号(新华医院),科教文化服务;培训机构;培训机构,141400,310000,上海市,21,上海市,310110,杨浦区,四平路,"121.516359,31.274872",021-65112629;15692161629,科教文化服务,培训机构,培训机构,121.516359,31.274872,"121.511983,31.27692",121.511983,31.27692,POINT (121.511983 31.27692),教育
B0FFMH87WK,八哥美术学校杨浦校区,大连路1548号莱克大厦18层B座,科教文化服务;培训机构;培训机构,141400,310000,上海市,21,上海市,310110,杨浦区,四平路,"121.503739,31.273399",[],科教文化服务,培训机构,培训机构,121.503739,31.273399,"121.499318,31.27541",121.499318,31.27541,POINT (121.499318 31.27541),教育
B0FFIJ6OSJ,专本网校,控江路2063号五环大厦西座7楼,科教文化服务;科教文化场所;科教文化场所,140000,310000,上海市,21,上海市,310110,杨浦区,四平路,"121.508236,31.271389",13636622363,科教文化服务,科教文化场所,科教文化场所,121.508236,31.271389,"121.503831,31.273414",121.503831,31.273414,POINT (121.503831 31.273414),教育
B0FFIVUHPE,洋光二外,国权路国阳大厦3楼,科教文化服务;培训机构;培训机构,141400,310000,上海市,21,上海市,310110,杨浦区,四平路,"121.515886,31.287994",13755144531,科教文化服务,培训机构,培训机构,121.515886,31.287994,"121.511507,31.290035",121.511507,31.290035,POINT (121.511507 31.290035),教育
B0FFIJMN5B,艺盈儿童舞蹈中心(控江路店),控江路2063号五环大厦西座4楼(靠近打虎山路),科教文化服务;培训机构;培训机构,141400,310000,上海市,21,上海市,310110,杨浦区,四平路,"121.508026,31.271474",[],科教文化服务,培训机构,培训机构,121.508026,31.271474,"121.50362,31.273499",121.50362,31.273499,POINT (121.50362 31.273499),教育
B001570M0B,同进培训,赤峰路53号神往大酒店2层,科教文化服务;培训机构;培训机构,141400,310000,上海市,21,上海市,310110,杨浦区,四平路,"121.502177,31.278712",021-65976485,科教文化服务,培训机构,培训机构,121.502177,31.278712,"121.49775,31.280716",121.49775,31.280716,POINT (121.49775 31.280716),教育
B0HABGPYVK,书写四季(君欣广场校区),控江路1777号君欣时代广场3楼L307,科教文化服务;科教文化场所;科教文化场所,140000,310000,上海市,21,上海市,310110,杨浦区,四平路,"121.514282,31.273510",13248058161,科教文化服务,科教文化场所,科教文化场所,121.514282,31.27351,"121.509898,31.275552",121.509898,31.275552,POINT (121.509898 31.275552),教育
B0FFGE64JB,上海同济建设工程质量检测站材料检测室,内环高架路与辉河路交叉口西南100米,科教文化服务;科研机构;科研机构,141300,310000,上海市,21,上海市,310110,杨浦区,四平路,"121.498881,31.286429",[],科教文化服务,科研机构,科研机构,121.498881,31.286429,"121.494441,31.28842",121.494441,31.28842,POINT (121.494441 31.28842),教育
B0FFFE52QJ,同济大学四平路校区学生事务中心,四平路1239号,科教文化服务;学校;高等院校,141201,310000,上海市,21,上海市,310110,杨浦区,四平路,"121.500377,31.284054",[],科教文化服务,学校,高等院校,121.500377,31.284054,"121.495943,31.286051",121.495943,31.286051,POINT (121.495943 31.286051),教育
B0FFHO0OYU,五角场社区文化活动中心,政化路257号五角场文化中心,科教文化服务;文化宫;文化宫,140800,310000,上海市,21,上海市,310110,杨浦区,四平路,"121.510928,31.293179",021-55806357,科教文化服务,文化宫,文化宫,121.510928,31.293179,"121.506531,31.295203",121.506531,31.295203,POINT (121.506531 31.295203),教育
B0FFGAQX6S,同济大学彰武路校区-工程实践中心A楼,彰武路100号同济大学彰武路校区,科教文化服务;学校;学校,141200,310000,上海市,21,上海市,310110,杨浦区,四平路,"121.514486,31.282989",[],科教文化服务,学校,学校,121.514486,31.282989,"121.510102,31.285028",121.510102,31.285028,POINT (121.510102 31.285028),教育
B0FFGE53O7,同济大学设计创意学院,阜新路281号,科教文化服务;学校;高等院校,141201,310000,上海市,21,上海市,310110,杨浦区,四平路,"121.507968,31.279604",021-65983432,科教文化服务,学校,高等院校,121.507968,31.279604,"121.503561,31.281625",121.503561,31.281625,POINT (121.503561 31.281625),教育
B0FFFFPMK6,复旦大学幼儿园,国年路275弄41号,科教文化服务;学校;幼儿园,141204,310000,上海市,21,上海市,310110,杨浦区,四平路,"121.50432,31.294426",021-65642481;021-65103046,科教文化服务,学校,幼儿园,121.50432,31.294426,"121.499899,31.29643",121.499899,31.29643,POINT (121.499899 31.29643),教育
B00156NZX8,同济大学幼儿园,同济新村580,科教文化服务;学校;幼儿园,141204,310000,上海市,21,上海市,310110,杨浦区,四平路,"121.511332,31.283681",021-65982302,科教文化服务,学校,幼儿园,121.511332,31.283681,"121.506937,31.28571",121.506937,31.28571,POINT (121.506937 31.28571),教育
B00155KDJM,同济大学高等技术学院,赤峰路67同济大学南校区,科教文化服务;学校;高等院校,141201,310000,上海市,21,上海市,310110,杨浦区,四平路,"121.499435,31.278283",[],科教文化服务,学校,高等院校,121.499435,31.278283,"121.494998,31.280279",121.494998,31.280279,POINT (121.494998 31.280279),教育
B00156EI3Z,上海开放大学综合楼,国顺路288号,科教文化服务;学校;学校,141200,310000,上海市,21,上海市,310110,杨浦区,四平路,"121.513611,31.291891",[],科教文化服务,学校,学校,121.513611,31.291891,"121.509223,31.293924",121.509223,31.293924,POINT (121.509223 31.293924),教育
B0FFHO1GTR,复旦大学南区主席台,邯郸路220号复旦大学邯郸校区复旦大学邯郸校区体育教学部附近,科教文化服务;学校;高等院校,141201,310000,上海市,21,上海市,310110,杨浦区,四平路,"121.502445,31.291269",[],科教文化服务,学校,高等院校,121.502445,31.291269,"121.498017,31.293269",121.498017,31.293269,POINT (121.498017 31.293269),教育
B0FFFDDKAV,同济大学中芬中心,彰武路100号,科教文化服务;学校;高等院校,141201,310000,上海市,21,上海市,310110,杨浦区,四平路,"121.514753,31.283147",021-65987507,科教文化服务,学校,高等院校,121.514753,31.283147,"121.51037,31.285187",121.51037,31.285187,POINT (121.51037 31.285187),教育
B00155KUG7,同济大学出国培训学院,彰武路100号同济大学彰武路校区,科教文化服务;学校;高等院校,141201,310000,上海市,21,上海市,310110,杨浦区,四平路,"121.512536,31.281722",[],科教文化服务,学校,高等院校,121.512536,31.281722,"121.508146,31.283756",121.508146,31.283756,POINT (121.508146 31.283756),教育
B0FFH295T7,同济大学-济阳楼,同济大学内,科教文化服务;学校;学校,141200,310000,上海市,21,上海市,310110,杨浦区,四平路,"121.497319,31.283705",[],科教文化服务,学校,学校,121.497319,31.283705,"121.492874,31.285693",121.492874,31.285693,POINT (121.492874 31.285693),教育
B0FFH09C08,复旦大学体育教学部,邯郸路220号复旦大学邯郸校区,科教文化服务;学校;高等院校,141201,310000,上海市,21,上海市,310110,杨浦区,四平路,"121.502457,31.291628",[],科教文化服务,学校,高等院校,121.502457,31.291628,"121.498029,31.293628",121.498029,31.293628,POINT (121.498029 31.293628),教育
B0FFF00KEC,上海交通大学医学院营养系,控江路1665号,科教文化服务;学校;高等院校,141201,310000,上海市,21,上海市,310110,杨浦区,四平路,"121.517631,31.273993",[],科教文化服务,学校,高等院校,121.517631,31.273993,"121.513259,31.276045",121.513259,31.276045,POINT (121.513259 31.276045),教育
B0FFG5A2GW,同济大学信息馆,四平路1239号同济大学四平路校区,科教文化服务;学校;高等院校,141201,310000,上海市,21,上海市,310110,杨浦区,四平路,"121.501622,31.283465",[],科教文化服务,学校,高等院校,121.501622,31.283465,"121.497192,31.285466",121.497192,31.285466,POINT (121.497192 31.285466),教育
B00155F1BK,同济大学化学馆,四平路1239号同济大学四平路校区,科教文化服务;学校;学校,141200,310000,上海市,21,上海市,310110,杨浦区,四平路,"121.503537,31.284494",[],科教文化服务,学校,学校,121.503537,31.284494,"121.499114,31.2865",121.499114,31.2865,POINT (121.499114 31.2865),教育
B0FFG3XTVG,同济大学物理楼,四平路1251号同济大学,科教文化服务;学校;学校,141200,310000,上海市,21,上海市,310110,杨浦区,四平路,"121.502990,31.284502",[],科教文化服务,学校,学校,121.50299,31.284502,"121.498565,31.286506",121.498565,31.286506,POINT (121.498565 31.286506),教育
B00154UNLF,复旦大学网络教育学院,邯郸路220号,科教文化服务;学校;成人教育,141205,310000,上海市,21,上海市,310110,杨浦区,四平路,"121.504217,31.295807",021-65642222,科教文化服务,学校,成人教育,121.504217,31.295807,"121.499795,31.29781",121.499795,31.29781,POINT (121.499795 31.29781),教育
B00157I2RX,同济大学四平路校区(北1门),国康路47号,科教文化服务;学校;高等院校,141201,310000,上海市,21,上海市,310110,杨浦区,四平路,"121.503639,31.286115",[],科教文化服务,学校,高等院校,121.503639,31.286115,"121.499216,31.288121",121.499216,31.288121,POINT (121.499216 31.288121),教育
B00155KSZR,同济大学四平路校区汇文楼,四平路1239号同济大学四平路校区内,科教文化服务;学校;学校,141200,310000,上海市,21,上海市,310110,杨浦区,四平路,"121.505088,31.284436",[],科教文化服务,学校,学校,121.505088,31.284436,"121.500671,31.286447",121.500671,31.286447,POINT (121.500671 31.286447),教育
B0FFF5VJVB,同济大学四平路校区瑞安楼(同济国康公寓西南),四平路1239号同济大学四平路校区,科教文化服务;学校;学校,141200,310000,上海市,21,上海市,310110,杨浦区,四平路,"121.502407,31.284711",[],科教文化服务,学校,学校,121.502407,31.284711,"121.49798,31.286713",121.49798,31.286713,POINT (121.49798 31.286713),教育
B00156YL29,同济大学能源楼,四平路1239号同济大学,科教文化服务;学校;学校,141200,310000,上海市,21,上海市,310110,杨浦区,四平路,"121.505507,31.284752",[],科教文化服务,学校,学校,121.505507,31.284752,"121.501091,31.286764",121.501091,31.286764,POINT (121.501091 31.286764),教育
B00155MQFS,同济大学四平路校区建筑与城市规划学院,四平路1239同济大学,科教文化服务;学校;高等院校,141201,310000,上海市,21,上海市,310110,杨浦区,四平路,"121.505735,31.285088",021-65981429,科教文化服务,学校,高等院校,121.505735,31.285088,"121.50132,31.2871",121.50132,31.2871,POINT (121.50132 31.2871),教育
B0FFGE56UW,同济大学-收发室,四平路1251号附近,科教文化服务;学校;高等院校,141201,310000,上海市,21,上海市,310110,杨浦区,四平路,"121.503768,31.283279",[],科教文化服务,学校,高等院校,121.503768,31.283279,"121.499346,31.285286",121.499346,31.285286,POINT (121.499346 31.285286),教育
B001570M96,同济大学电子与信息工程学院,四平路1239号同济大学四平路校区,科教文化服务;学校;高等院校,141201,310000,上海市,21,上海市,310110,杨浦区,四平路,"121.502938,31.284535",[],科教文化服务,学校,高等院校,121.502938,31.284535,"121.498513,31.286539",121.498513,31.286539,POINT (121.498513 31.286539),教育
B0FFF356QD,同济大学计算中心,四平路1239号同济大学,科教文化服务;学校;高等院校,141201,310000,上海市,21,上海市,310110,杨浦区,四平路,"121.501493,31.283550",[],科教文化服务,学校,高等院校,121.501493,31.28355,"121.497063,31.28555",121.497063,31.28555,POINT (121.497063 31.28555),教育
B00155KCD1,复旦大学复星楼,邯郸路220号复旦大学邯郸校区,科教文化服务;学校;学校,141200,310000,上海市,21,上海市,310110,杨浦区,四平路,"121.503487,31.294929",[],科教文化服务,学校,学校,121.503487,31.294929,"121.499063,31.296931",121.499063,31.296931,POINT (121.499063 31.296931),教育
B0FFH12LEN,同济大学-人文学院,赤峰路66-2号附近,科教文化服务;学校;高等院校,141201,310000,上海市,21,上海市,310110,杨浦区,四平路,"121.499998,31.281026",[],科教文化服务,学校,高等院校,121.499998,31.281026,"121.495562,31.283023",121.495562,31.283023,POINT (121.495562 31.283023),教育
B0FFFOFQOH,同济大学化学实验教学中心,四平路1239号同济大学四平路校区内,科教文化服务;学校;高等院校,141201,310000,上海市,21,上海市,310110,杨浦区,四平路,"121.5032,31.284696",[],科教文化服务,学校,高等院校,121.5032,31.284696,"121.498776,31.286701",121.498776,31.286701,POINT (121.498776 31.286701),教育
B00156YKZW,同济大学青年楼,四平路1239号,科教文化服务;学校;学校,141200,310000,上海市,21,上海市,310110,杨浦区,四平路,"121.502275,31.282442",[],科教文化服务,学校,学校,121.502275,31.282442,"121.497848,31.284445",121.497848,31.284445,POINT (121.497848 31.284445),教育
B00156YKYO,同济大学一二九大楼,四平路1239号同济大学四平路校区内,科教文化服务;学校;学校,141200,310000,上海市,21,上海市,310110,杨浦区,四平路,"121.504308,31.281459",[],科教文化服务,学校,学校,121.504308,31.281459,"121.499888,31.283468",121.499888,31.283468,POINT (121.499888 31.283468),教育
B00155MYLG,复旦大学邯郸校区外国语言文学学院,邯郸路220号复旦大学邯郸校区,科教文化服务;学校;高等院校,141201,310000,上海市,21,上海市,310110,杨浦区,四平路,"121.504278,31.295794",[],科教文化服务,学校,高等院校,121.504278,31.295794,"121.499857,31.297798",121.499857,31.297798,POINT (121.499857 31.297798),教育
B00155KCD2,复旦大学邯郸校区泛海楼,国权路600号,科教文化服务;学校;学校,141200,310000,上海市,21,上海市,310110,杨浦区,四平路,"121.503890,31.294701",021-65642222,科教文化服务,学校,学校,121.50389,31.294701,"121.499467,31.296704",121.499467,31.296704,POINT (121.499467 31.296704),教育
B0HU55OI1Y,光明驾校(杨浦区直营店),四平路1912号,科教文化服务;科教文化场所;科教文化场所,140000,310000,上海市,21,上海市,310110,杨浦区,四平路,"121.511077,31.290776",4000215966,科教文化服务,科教文化场所,科教文化场所,121.511077,31.290776,"121.506681,31.292802",121.506681,31.292802,POINT (121.506681 31.292802),教育
B0HDLGVD2G,意通驾校,国定路与黄兴路交叉口西约120米,科教文化服务;驾校;驾校,141500,310000,上海市,21,上海市,310110,杨浦区,四平路,"121.516950,31.294200",[],科教文化服务,驾校,驾校,121.51695,31.2942,"121.512574,31.296242",121.512574,31.296242,POINT (121.512574 31.296242),教育
B0FFFNSW76,电子与信息工程学院专业学位教学管理中心,赤峰路67同济大学南校区,科教文化服务;学校;高等院校,141201,310000,上海市,21,上海市,310110,杨浦区,四平路,"121.49906,31.279147",[],科教文化服务,学校,高等院校,121.49906,31.279147,"121.494621,31.281142",121.494621,31.281142,POINT (121.494621 31.281142),教育
B0FFF3AQZY,上海圆桌进修学院(控江路),控江路1553-1555号上海信息技术大厦A座906、908-909,科教文化服务;学校;成人教育,141205,310000,上海市,21,上海市,310110,杨浦区,四平路,"121.519144,31.274614",[],科教文化服务,学校,成人教育,121.519144,31.274614,"121.514777,31.27667",121.514777,31.27667,POINT (121.514777 31.27667),教育
B0FFJ7XIDF,上海奥锐盒文化传播有限公司,大连路990号海上海新城商务楼10号楼,科教文化服务;科教文化场所;科教文化场所,140000,310000,上海市,21,上海市,310110,杨浦区,四平路,"121.506918,31.266507",[],科教文化服务,科教文化场所,科教文化场所,121.506918,31.266507,"121.502509,31.268531",121.502509,31.268531,POINT (121.502509 31.268531),教育
B0FFG5A2H0,同济大学四平路校区体育运动委员会,四平路1239号同济大学四平路校区,科教文化服务;学校;高等院校,141201,310000,上海市,21,上海市,310110,杨浦区,四平路,"121.503434,31.281646",[],科教文化服务,学校,高等院校,121.503434,31.281646,"121.499011,31.283653",121.499011,31.283653,POINT (121.499011 31.283653),教育
B0FFGZQGVN,同济大学四平路校区信访办公室,同济大学四平路校区逸夫楼,科教文化服务;学校;高等院校,141201,310000,上海市,21,上海市,310110,杨浦区,四平路,"121.505325,31.281988",[],科教文化服务,学校,高等院校,121.505325,31.281988,"121.500909,31.284",121.500909,31.284,POINT (121.500909 31.284),教育
B001579JGB,上海圣复文化传播有限公司(辽源西路),辽源西路101-13号,科教文化服务;传媒机构;传媒机构,141100,310000,上海市,21,上海市,310110,杨浦区,四平路,"121.512907,31.268344",[],科教文化服务,传媒机构,传媒机构,121.512907,31.268344,"121.508519,31.270385",121.508519,31.270385,POINT (121.508519 31.270385),教育
B00151FA4C,杨浦区青少年业余体育学校,江浦路街道打虎山路19号,科教文化服务;学校;学校,141200,310000,上海市,21,上海市,310110,杨浦区,四平路,"121.508954,31.271736",021-65033877,科教文化服务,学校,学校,121.508954,31.271736,"121.504552,31.273763",121.504552,31.273763,POINT (121.504552 31.273763),教育
B0FFF5VJ5P,江浦路街道老年学校,控江路1971-2弄内4号,科教文化服务;学校;成人教育,141205,310000,上海市,21,上海市,310110,杨浦区,四平路,"121.511516,31.272922",[],科教文化服务,学校,成人教育,121.511516,31.272922,"121.507123,31.274956",121.507123,31.274956,POINT (121.507123 31.274956),教育
B0FFH68U10,作文大王俱乐部(许昌路第五小学分部),许昌路1501号,科教文化服务;培训机构;培训机构,141400,310000,上海市,21,上海市,310110,杨浦区,四平路,"121.511906,31.272493",021-65039346,科教文化服务,培训机构,培训机构,121.511906,31.272493,"121.507514,31.274529",121.507514,31.274529,POINT (121.507514 31.274529),教育
B00157HZR9,中共杨浦区教育局委员会党校,铁岭路109号,科教文化服务;学校;学校,141200,310000,上海市,21,上海市,310110,杨浦区,四平路,"121.512294,31.279730",[],科教文化服务,学校,学校,121.512294,31.27973,"121.507903,31.281764",121.507903,31.281764,POINT (121.507903 31.281764),教育
B0FFGBBRH3,杨浦高级中学-电教楼,四平路,科教文化服务;学校;学校,141200,310000,上海市,21,上海市,310110,杨浦区,四平路,"121.502645,31.276405",[],科教文化服务,学校,学校,121.502645,31.276405,"121.498219,31.278412",121.498219,31.278412,POINT (121.498219 31.278412),教育
B00155KDPH,同济大学四平路校区中德学院,四平路1239号同济大学四平路校区,科教文化服务;学校;高等院校,141201,310000,上海市,21,上海市,310110,杨浦区,四平路,"121.50021,31.281404",[],科教文化服务,学校,高等院校,121.50021,31.281404,"121.495775,31.283401",121.495775,31.283401,POINT (121.495775 31.283401),教育
B0FFGEQRLJ,同济大学第一教学楼,赤峰路67号同济大学四平路校区南校区内,科教文化服务;学校;学校,141200,310000,上海市,21,上海市,310110,杨浦区,四平路,"121.498918,31.278309",[],科教文化服务,学校,学校,121.498918,31.278309,"121.494479,31.280304",121.494479,31.280304,POINT (121.494479 31.280304),教育
B0FFF00HWT,同济大学四平路校区物理科学与工程学院,四平路1239号同济大学四平路校区,科教文化服务;学校;高等院校,141201,310000,上海市,21,上海市,310110,杨浦区,四平路,"121.501807,31.284035",021-65983380,科教文化服务,学校,高等院校,121.501807,31.284035,"121.497378,31.286036",121.497378,31.286036,POINT (121.497378 31.286036),教育
B001570K8K,同济大学第一实验楼,赤峰路67号同济大学南校区,科教文化服务;学校;学校,141200,310000,上海市,21,上海市,310110,杨浦区,四平路,"121.498236,31.278995",[],科教文化服务,学校,学校,121.498236,31.278995,"121.493794,31.280987",121.493794,31.280987,POINT (121.493794 31.280987),教育
B00156YL27,同济大学四平路校区海洋楼,四平路1239号同济大学四平路校区,科教文化服务;学校;学校,141200,310000,上海市,21,上海市,310110,杨浦区,四平路,"121.501518,31.284955",[],科教文化服务,学校,学校,121.501518,31.284955,"121.497088,31.286955",121.497088,31.286955,POINT (121.497088 31.286955),教育
B00155KVTG,同济大学四平路校区土木工程学院,四平路1239号同济大学四平路校区,科教文化服务;学校;高等院校,141201,310000,上海市,21,上海市,310110,杨浦区,四平路,"121.499077,31.281252",[],科教文化服务,学校,高等院校,121.499077,31.281252,"121.494638,31.283246",121.494638,31.283246,POINT (121.494638 31.283246),教育
B00155KGI4,同济大学四平路校区海洋与地球科学学院,四平路1239号同济大学四平路校区,科教文化服务;学校;高等院校,141201,310000,上海市,21,上海市,310110,杨浦区,四平路,"121.501516,31.284952",[],科教文化服务,学校,高等院校,121.501516,31.284952,"121.497086,31.286952",121.497086,31.286952,POINT (121.497086 31.286952),教育
B0FFLKIRDS,同济联合广场-会议室,彰武路50号同济君禧大酒店3层,科教文化服务;科教文化场所;科教文化场所,140000,310000,上海市,21,上海市,310110,杨浦区,四平路,"121.508345,31.281235",021-33626888,科教文化服务,科教文化场所,科教文化场所,121.508345,31.281235,"121.50394,31.283257",121.50394,31.283257,POINT (121.50394 31.283257),教育
B0FFIHBC5X,上海市杨浦区业余大学上海开放大学杨浦分校招生服务中心,许昌路上海开放大学杨浦分校,科教文化服务;科教文化场所;科教文化场所,140000,310000,上海市,21,上海市,310110,杨浦区,四平路,"121.514382,31.270210",[],科教文化服务,科教文化场所,科教文化场所,121.514382,31.27021,"121.509999,31.272254",121.509999,31.272254,POINT (121.509999 31.272254),教育
B001575XW1,同济大学四平路校区一二九大礼堂,四平路1239号同济大学四平路校区,科教文化服务;会展中心;会展中心,140300,310000,上海市,21,上海市,310110,杨浦区,四平路,"121.504496,31.281201",[],科教文化服务,会展中心,会展中心,121.504496,31.281201,"121.500077,31.283211",121.500077,31.283211,POINT (121.500077 31.283211),教育
B00156GWV0,萌芽幼儿园,国顺路81弄33号,科教文化服务;学校;幼儿园,141204,310000,上海市,21,上海市,310110,杨浦区,四平路,"121.518454,31.290018",021-55052246;021-55054691,科教文化服务,学校,幼儿园,121.518454,31.290018,"121.514084,31.292066",121.514084,31.292066,POINT (121.514084 31.292066),教育
B00156OCZQ,锦西幼儿园,抚顺路373弄28号,科教文化服务;学校;幼儿园,141204,310000,上海市,21,上海市,310110,杨浦区,四平路,"121.50973,31.276998",021-65138326,科教文化服务,学校,幼儿园,121.50973,31.276998,"121.50533,31.279025",121.50533,31.279025,POINT (121.50533 31.279025),教育
B00155MNAV,许昌路幼儿园,双辽支路25号,科教文化服务;学校;幼儿园,141204,310000,上海市,21,上海市,310110,杨浦区,四平路,"121.51785,31.270238",021-65037610,科教文化服务,学校,幼儿园,121.51785,31.270238,"121.513479,31.272292",121.513479,31.272292,POINT (121.513479 31.272292),教育
B0FFJGPE56,博中幼稚园,飞虹路588号附近,科教文化服务;学校;幼儿园,141204,310000,上海市,21,上海市,310110,杨浦区,四平路,"121.508918,31.265541",[],科教文化服务,学校,幼儿园,121.508918,31.265541,"121.504516,31.267571",121.504516,31.267571,POINT (121.504516 31.267571),教育
B0HAPDT3VY,好姑姑(上海大花园校区),周家嘴路1301号,科教文化服务;科教文化场所;科教文化场所,140000,310000,上海市,21,上海市,310110,杨浦区,四平路,"121.512606,31.264531",[],科教文化服务,科教文化场所,科教文化场所,121.512606,31.264531,"121.508217,31.266572",121.508217,31.266572,POINT (121.508217 31.266572),教育
B00155QXWO,上海同济城市规划设计研究院有限公司,中山北路1111号同济规划大厦,科教文化服务;科研机构;科研机构,141300,310000,上海市,21,上海市,310110,杨浦区,四平路,"121.505056,31.286534",021-65982930;021-65982093,科教文化服务,科研机构,科研机构,121.505056,31.286534,"121.500638,31.288544",121.500638,31.288544,POINT (121.500638 31.288544),教育
B00155MQI8,同济大学四平路校区桥梁馆,四平路1239号同济大学四平路校区,科教文化服务;学校;学校,141200,310000,上海市,21,上海市,310110,杨浦区,四平路,"121.498074,31.284923",021-65982200,科教文化服务,学校,学校,121.498074,31.284923,"121.493631,31.286912",121.493631,31.286912,POINT (121.493631 31.286912),教育
B0FFJ42KQE,公文教育,控江路1555号上海信息技术大厦1901室,科教文化服务;培训机构;培训机构,141400,310000,上海市,21,上海市,310110,杨浦区,四平路,"121.519081,31.274597",[],科教文化服务,培训机构,培训机构,121.519081,31.274597,"121.514714,31.276653",121.514714,31.276653,POINT (121.514714 31.276653),教育
B0FFGE61OO,复旦求是进修学院中学培训部,国达路58号107室,科教文化服务;培训机构;培训机构,141400,310000,上海市,21,上海市,310110,杨浦区,四平路,"121.508868,31.296137",021-65650402,科教文化服务,培训机构,培训机构,121.508868,31.296137,"121.504463,31.298154",121.504463,31.298154,POINT (121.504463 31.298154),教育
B0FFLFQ4MW,复旦大学计算机科学技术学院,[],科教文化服务;学校;高等院校,141201,310000,上海市,21,上海市,310110,杨浦区,四平路,"121.511398,31.298281",[],科教文化服务,学校,高等院校,121.511398,31.298281,"121.507002,31.300305",121.507002,31.300305,POINT (121.507002 31.300305),教育
B00155CYAE,上海市创新文化科技进修学院,国权路525复华大楼副楼204-205室复旦大学,科教文化服务;学校;成人教育,141205,310000,上海市,21,上海市,310110,杨浦区,四平路,"121.508832,31.295864",[],科教文化服务,学校,成人教育,121.508832,31.295864,"121.504427,31.297881",121.504427,31.297881,POINT (121.504427 31.297881),教育
B001570LNA,同济大学四平路校区北楼,四平路1239号同济大学四平路校区,科教文化服务;学校;学校,141200,310000,上海市,21,上海市,310110,杨浦区,四平路,"121.504876,31.283923",[],科教文化服务,学校,学校,121.504876,31.283923,"121.500458,31.285933",121.500458,31.285933,POINT (121.500458 31.285933),教育
B0FFG1OF24,上海同哉达文化传播有限公司,四平路1388号同济联合广场C楼203B,科教文化服务;科教文化场所;科教文化场所,140000,310000,上海市,21,上海市,310110,杨浦区,四平路,"121.507233,31.281355",021-65981500,科教文化服务,科教文化场所,科教文化场所,121.507233,31.281355,"121.502824,31.283373",121.502824,31.283373,POINT (121.502824 31.283373),教育
B00157990R,上海交通大学医学院儿童保健研究中心(控江路),控江路1665号上海交通大学医学院附属新华医院科教大楼9楼,科教文化服务;科研机构;科研机构,141300,310000,上海市,21,上海市,310110,杨浦区,四平路,"121.517100,31.274112",[],科教文化服务,科研机构,科研机构,121.5171,31.274112,"121.512726,31.276162",121.512726,31.276162,POINT (121.512726 31.276162),教育
B001570L3D,同济大学四平路校区南楼,四平路1239号同济大学四平路校区,科教文化服务;学校;学校,141200,310000,上海市,21,上海市,310110,杨浦区,四平路,"121.504057,31.282562",[],科教文化服务,学校,学校,121.504057,31.282562,"121.499636,31.28457",121.499636,31.28457,POINT (121.499636 31.28457),教育
B00156YL7A,同济大学四平路校区解放楼,四平路1239号,科教文化服务;学校;学校,141200,310000,上海市,21,上海市,310110,杨浦区,四平路,"121.501991,31.282288",[],科教文化服务,学校,学校,121.501991,31.282288,"121.497563,31.28429",121.497563,31.28429,POINT (121.497563 31.28429),教育
B0FFFOO3L5,同济大学四平路校区材料科学与工程学院材料检测室,四平路1239号同济大学四平路校区内,科教文化服务;学校;高等院校,141201,310000,上海市,21,上海市,310110,杨浦区,四平路,"121.499012,31.286222",[],科教文化服务,学校,高等院校,121.499012,31.286222,"121.494572,31.288214",121.494572,31.288214,POINT (121.494572 31.288214),教育
B0FFF00HWQ,同济大学四平路校区同文楼,国康路38号,科教文化服务;学校;学校,141200,310000,上海市,21,上海市,310110,杨浦区,四平路,"121.505971,31.284255",[],科教文化服务,学校,学校,121.505971,31.284255,"121.501557,31.286268",121.501557,31.286268,POINT (121.501557 31.286268),教育
B0FFGE4TRX,同济大学医学与生命科学部,赤峰路50号,科教文化服务;学校;高等院校,141201,310000,上海市,21,上海市,310110,杨浦区,四平路,"121.501336,31.281291",[],科教文化服务,学校,高等院校,121.501336,31.281291,"121.496905,31.283292",121.496905,31.283292,POINT (121.496905 31.283292),教育
B0FFHP6JRH,同建教育培训,四平路1388号C楼,科教文化服务;培训机构;培训机构,141400,310000,上海市,21,上海市,310110,杨浦区,四平路,"121.507538,31.281273",[],科教文化服务,培训机构,培训机构,121.507538,31.281273,"121.50313,31.283292",121.50313,31.283292,POINT (121.50313 31.283292),教育
B00155KWN5,史带楼,内环中环之间国顺路670号复旦大学管理学院内,科教文化服务;学校;学校,141200,310000,上海市,21,上海市,310110,杨浦区,四平路,"121.506619,31.296725",021-55664800,科教文化服务,学校,学校,121.506619,31.296725,"121.502206,31.298735",121.502206,31.298735,POINT (121.502206 31.298735),教育
B0HG7MKM4K,青少儿篮球体适能培训班(旭辉广场店),控江路2068号,科教文化服务;培训机构;培训机构,141400,310000,上海市,21,上海市,310110,杨浦区,四平路,"121.508850,31.273437",[],科教文化服务,培训机构,培训机构,121.50885,31.273437,"121.504447,31.275463",121.504447,31.275463,POINT (121.504447 31.275463),教育
B0FFFPCZWW,MAX专业视频制作,延吉西路凤城二村,科教文化服务;传媒机构;传媒机构,141100,310000,上海市,21,上海市,310110,杨浦区,四平路,"121.519963,31.278858",15900725850,科教文化服务,传媒机构,传媒机构,121.519963,31.278858,"121.515599,31.280915",121.515599,31.280915,POINT (121.515599 31.280915),教育
B0FFIB5H7K,SCHOLASTIC(旭辉MALL),四平路街道控江路2068号旭辉MALLF3层3F-02&05,科教文化服务;培训机构;培训机构,141400,310000,上海市,21,上海市,310110,杨浦区,四平路,"121.509248,31.272985",[],科教文化服务,培训机构,培训机构,121.509248,31.272985,"121.504847,31.275013",121.504847,31.275013,POINT (121.504847 31.275013),教育
B0FFG1TEWY,中华医学会皮肤性病学分会特应性皮炎研究中心,控江路1665号,科教文化服务;科研机构;科研机构,141300,310000,上海市,21,上海市,310110,杨浦区,四平路,"121.517000,31.274159",[],科教文化服务,科研机构,科研机构,121.517,31.274159,"121.512626,31.276209",121.512626,31.276209,POINT (121.512626 31.276209),教育
B0FFHHCL6E,上海禾木文化传播有限公司,四平路街道四平路1063号中天大厦1103,科教文化服务;科教文化场所;科教文化场所,140000,310000,上海市,21,上海市,310110,杨浦区,四平路,"121.503362,31.277160",[],科教文化服务,科教文化场所,科教文化场所,121.503362,31.27716,"121.498939,31.279168",121.498939,31.279168,POINT (121.498939 31.279168),教育
B00157HZWU,新华临床医学院,控江路1665号,科教文化服务;学校;高等院校,141201,310000,上海市,21,上海市,310110,杨浦区,四平路,"121.517631,31.273993",[],科教文化服务,学校,高等院校,121.517631,31.273993,"121.513259,31.276045",121.513259,31.276045,POINT (121.513259 31.276045),教育
B0FFF5VJ7U,中国商业联合会考试中心(文华楼),政法路195号文华楼,科教文化服务;科教文化场所;科教文化场所,140000,310000,上海市,21,上海市,310110,杨浦区,四平路,"121.514189,31.293279",[],科教文化服务,科教文化场所,科教文化场所,121.514189,31.293279,"121.509803,31.295313",121.509803,31.295313,POINT (121.509803 31.295313),教育
B0FFG5A2GZ,同济大学四平路校区怡园,四平路1239号同济大学四平路校区,科教文化服务;学校;学校,141200,310000,上海市,21,上海市,310110,杨浦区,四平路,"121.504,31.2845",[],科教文化服务,学校,学校,121.504,31.2845,"121.499579,31.286507",121.499579,31.286507,POINT (121.499579 31.286507),教育
B0FFF00KED,上海交通大学医学院耳鼻咽喉学系,控江路1665号,科教文化服务;学校;高等院校,141201,310000,上海市,21,上海市,310110,杨浦区,四平路,"121.517631,31.273993",[],科教文化服务,学校,高等院校,121.517631,31.273993,"121.513259,31.276045",121.513259,31.276045,POINT (121.513259 31.276045),教育
B0FFK06HZI,上海同华进修学院,凤城路105附近,科教文化服务;学校;成人教育,141205,310000,上海市,21,上海市,310110,杨浦区,四平路,"121.522793,31.279336",[],科教文化服务,学校,成人教育,121.522793,31.279336,"121.518438,31.2814",121.518438,31.2814,POINT (121.518438 31.2814),教育
B0FFIIGF1A,芥菜种文化传播有限公司,四平路1188号远洋广场1201室,科教文化服务;科教文化场所;科教文化场所,140000,310000,上海市,21,上海市,310110,杨浦区,四平路,"121.504516,31.277951",[],科教文化服务,科教文化场所,科教文化场所,121.504516,31.277951,"121.500097,31.279963",121.500097,31.279963,POINT (121.500097 31.279963),教育
B0FFG1DSYV,上海巨智教育(国定店),国定路335号三号湾3号楼A区,科教文化服务;培训机构;培训机构,141400,310000,上海市,21,上海市,310110,杨浦区,四平路,"121.508730,31.296295",021-65650586,科教文化服务,培训机构,培训机构,121.50873,31.296295,"121.504325,31.298312",121.504325,31.298312,POINT (121.504325 31.298312),教育
B0FFHRAFJT,真朴儿童围棋教室(五角场校区),邯郸路365号颐高数码广场三层,科教文化服务;科教文化场所;科教文化场所,140000,310000,上海市,21,上海市,310110,杨浦区,四平路,"121.508228,31.297413",[],科教文化服务,科教文化场所,科教文化场所,121.508228,31.297413,"121.503821,31.299428",121.503821,31.299428,POINT (121.503821 31.299428),教育
B00156YKZ9,同济大学四平斋光明楼,同济大学地铁站4号口西150米,科教文化服务;学校;学校,141200,310000,上海市,21,上海市,310110,杨浦区,四平路,"121.504840,31.280769",[],科教文化服务,学校,学校,121.50484,31.280769,"121.500422,31.28278",121.500422,31.28278,POINT (121.500422 31.28278),教育
B0FFKZ8FQO,杨浦悠贝分馆,控江路1904号附近,科教文化服务;科教文化场所;科教文化场所,140000,310000,上海市,21,上海市,310110,杨浦区,四平路,"121.511182,31.273608",[],科教文化服务,科教文化场所,科教文化场所,121.511182,31.273608,"121.506787,31.275641",121.506787,31.275641,POINT (121.506787 31.275641),教育
B0FFFAPIXC,上海小问号教育培训有限公司,黄兴路1599号新纪元国际广场3层,科教文化服务;培训机构;培训机构,141400,310000,上海市,21,上海市,310110,杨浦区,四平路,"121.521120,31.286708",021-55063303;4006151035,科教文化服务,培训机构,培训机构,121.52112,31.286708,"121.516759,31.288765",121.516759,31.288765,POINT (121.516759 31.288765),教育
B001546829,上海市学生艺术团同济大学第一附属中学合唱团,鞍山路300号,科教文化服务;文艺团体;文艺团体,141000,310000,上海市,21,上海市,310110,杨浦区,四平路,"121.509865,31.279067",[],科教文化服务,文艺团体,文艺团体,121.509865,31.279067,"121.505465,31.281094",121.505465,31.281094,POINT (121.505465 31.281094),教育
B0FFJKC2PY,同济大学城规B楼,国康路19附近,科教文化服务;学校;学校,141200,310000,上海市,21,上海市,310110,杨浦区,四平路,"121.504907,31.285147",[],科教文化服务,学校,学校,121.504907,31.285147,"121.500489,31.287157",121.500489,31.287157,POINT (121.500489 31.287157),教育
B0FFHT6TM9,复旦大学外国语言文学学院,邯郸路220号,科教文化服务;学校;高等院校,141201,310000,上海市,21,上海市,310110,杨浦区,四平路,"121.504309,31.295831",[],科教文化服务,学校,高等院校,121.504309,31.295831,"121.499888,31.297835",121.499888,31.297835,POINT (121.499888 31.297835),教育
B0HGNYJWLK,上海市水生野生动植物保护研究中心,赤峰路63号沪东科技园,科教文化服务;科教文化场所;科教文化场所,140000,310000,上海市,21,上海市,310110,杨浦区,四平路,"121.500939,31.279563",[],科教文化服务,科教文化场所,科教文化场所,121.500939,31.279563,"121.496507,31.281563",121.496507,31.281563,POINT (121.496507 31.281563),教育
B0FFFDUCPZ,同济王牌专业考研辅导,四平路1388号同济联合广场F1,科教文化服务;培训机构;培训机构,141400,310000,上海市,21,上海市,310110,杨浦区,四平路,"121.507324,31.281837",021-33626281;021-33626282,科教文化服务,培训机构,培训机构,121.507324,31.281837,"121.502915,31.283855",121.502915,31.283855,POINT (121.502915 31.283855),教育
B0FFH5K55K,同济大学四平路校区地下建筑与工程系,四平路1239号,科教文化服务;学校;高等院校,141201,310000,上海市,21,上海市,310110,杨浦区,四平路,"121.498620,31.285950",[],科教文化服务,学校,高等院校,121.49862,31.28595,"121.494179,31.287941",121.494179,31.287941,POINT (121.494179 31.287941),教育
B0G239D2EU,精锐教育控江路中心,控江路1446-4号临附近,科教文化服务;培训机构;培训机构,141400,310000,上海市,21,上海市,310110,杨浦区,四平路,"121.524612,31.277078",4008796685,科教文化服务,培训机构,培训机构,121.524612,31.277078,"121.520264,31.279148",121.520264,31.279148,POINT (121.520264 31.279148),教育
B00156O0P5,《机械工程师》杂志社上海代表处,控江路2075贵人大厦商务楼,科教文化服务;传媒机构;杂志社,141104,310000,上海市,21,上海市,310110,杨浦区,四平路,"121.507619,31.270861",[],科教文化服务,传媒机构,杂志社,121.507619,31.270861,"121.503212,31.272885",121.503212,31.272885,POINT (121.503212 31.272885),教育
B0FFI74M0Q,优能一对一,国定路309号新东方一楼,科教文化服务;培训机构;培训机构,141400,310000,上海市,21,上海市,310110,杨浦区,四平路,"121.509756,31.296066",[],科教文化服务,培训机构,培训机构,121.509756,31.296066,"121.505354,31.298086",121.505354,31.298086,POINT (121.505354 31.298086),教育
B0GKK155TF,占座自习室(控江店),控江路与双辽路交叉口西北40米,科教文化服务;培训机构;培训机构,141400,310000,上海市,21,上海市,310110,杨浦区,四平路,"121.514998,31.274503",[],科教文化服务,培训机构,培训机构,121.514998,31.274503,"121.510617,31.276547",121.510617,31.276547,POINT (121.510617 31.276547),教育
B001570LV7,同济大学-生命科学与技术学院,赤峰路50号,科教文化服务;学校;高等院校,141201,310000,上海市,21,上海市,310110,杨浦区,四平路,"121.501315,31.281716",021-65981041,科教文化服务,学校,高等院校,121.501315,31.281716,"121.496884,31.283716",121.496884,31.283716,POINT (121.496884 31.283716),教育
B00155MMOQ,同济大学四平路校区土木工程学院水利工程系,四平路1239号同济大学四平路校区,科教文化服务;学校;高等院校,141201,310000,上海市,21,上海市,310110,杨浦区,四平路,"121.498652,31.285515",[],科教文化服务,学校,高等院校,121.498652,31.285515,"121.494211,31.287506",121.494211,31.287506,POINT (121.494211 31.287506),教育
B0FFH7VT40,慧源教育,国定路335号高科技企业杨浦孵化基地5层5005,科教文化服务;培训机构;培训机构,141400,310000,上海市,21,上海市,310110,杨浦区,四平路,"121.508261,31.297305",13917755508,科教文化服务,培训机构,培训机构,121.508261,31.297305,"121.503854,31.29932",121.503854,31.29932,POINT (121.503854 31.29932),教育
B00155KD9F,同济大学建筑设计研究院同元分院,赤峰路63号沪东科技园,科教文化服务;科研机构;科研机构,141300,310000,上海市,21,上海市,310110,杨浦区,四平路,"121.500957,31.279549",021-35375078,科教文化服务,科研机构,科研机构,121.500957,31.279549,"121.496525,31.281549",121.496525,31.281549,POINT (121.496525 31.281549),教育
B0FFJCNKFQ,市政工程院,四平路1230号同济大学建筑设计研究院集团有限公司205,科教文化服务;科教文化场所;科教文化场所,140000,310000,上海市,21,上海市,310110,杨浦区,四平路,"121.507065,31.280085",[],科教文化服务,科教文化场所,科教文化场所,121.507065,31.280085,"121.502655,31.282103",121.502655,31.282103,POINT (121.502655 31.282103),教育
B0FFKKWANR,上海祖鲁音乐工厂录音棚(上海总店),[],科教文化服务;传媒机构;传媒机构,141100,310000,上海市,21,上海市,310110,杨浦区,四平路,"121.507495,31.265343",021-61996736;18221524252,科教文化服务,传媒机构,传媒机构,121.507495,31.265343,"121.503088,31.267369",121.503088,31.267369,POINT (121.503088 31.267369),教育
B0FFL85KKI,同济大学建筑设计院(集团)有限公司-报告厅,1楼A区,科教文化服务;科教文化场所;科教文化场所,140000,310000,上海市,21,上海市,310110,杨浦区,四平路,"121.506793,31.280583",[],科教文化服务,科教文化场所,科教文化场所,121.506793,31.280583,"121.502382,31.2826",121.502382,31.2826,POINT (121.502382 31.2826),教育
B0FFK77KBA,新东方在线(上海学习中心),四平路1188号远洋广场1802室,科教文化服务;培训机构;培训机构,141400,310000,上海市,21,上海市,310110,杨浦区,四平路,"121.504480,31.278227",4006905751,科教文化服务,培训机构,培训机构,121.50448,31.278227,"121.500061,31.280238",121.500061,31.280238,POINT (121.500061 31.280238),教育
B001571CQA,中国建筑学会抗震防灾分会抗震试验技术专业委员会,四平路1239号同济大学四平路校区,科教文化服务;学校;高等院校,141201,310000,上海市,21,上海市,310110,杨浦区,四平路,"121.498979,31.285202",[],科教文化服务,学校,高等院校,121.498979,31.285202,"121.494539,31.287194",121.494539,31.287194,POINT (121.494539 31.287194),教育
B0FFKYMG9W,易达中小学(杨浦校区),江浦路1500号2号楼203(控江路),科教文化服务;学校;小学,141203,310000,上海市,21,上海市,310110,杨浦区,四平路,"121.519251,31.273985",[],科教文化服务,学校,小学,121.519251,31.273985,"121.514885,31.276042",121.514885,31.276042,POINT (121.514885 31.276042),教育
B00154XUTX,敬业进修学校,本溪路187凤凰赢家商务楼304-308室,科教文化服务;学校;成人教育,141205,310000,上海市,21,上海市,310110,杨浦区,四平路,"121.514013,31.275339",021-65033593;021-65620193,科教文化服务,学校,成人教育,121.514013,31.275339,"121.509628,31.27738",121.509628,31.27738,POINT (121.509628 31.27738),教育
B001571MLN,上海市建设工程检测行业协会培训中心,阜新路281号,科教文化服务;培训机构;培训机构,141400,310000,上海市,21,上海市,310110,杨浦区,四平路,"121.508785,31.280889",[],科教文化服务,培训机构,培训机构,121.508785,31.280889,"121.504381,31.282912",121.504381,31.282912,POINT (121.504381 31.282912),教育
B001571LWK,上海市小苹果艺术团(复旦培训部),邯郸路220号复旦大学邯郸校区,科教文化服务;培训机构;培训机构,141400,310000,上海市,21,上海市,310110,杨浦区,四平路,"121.508969,31.295235",[],科教文化服务,培训机构,培训机构,121.508969,31.295235,"121.504565,31.297253",121.504565,31.297253,POINT (121.504565 31.297253),教育
B0G3Z1TJCV,于漪教育思想研究中心,四平路999号上海市杨浦高级中学电教楼,科教文化服务;科教文化场所;科教文化场所,140000,310000,上海市,21,上海市,310110,杨浦区,四平路,"121.502474,31.276906",[],科教文化服务,科教文化场所,科教文化场所,121.502474,31.276906,"121.498048,31.278912",121.498048,31.278912,POINT (121.498048 31.278912),教育
B0FFF35G8F,同济大学四平路校区云通楼,四平路1239号同济大学四平路校区,科教文化服务;学校;学校,141200,310000,上海市,21,上海市,310110,杨浦区,四平路,"121.499959,31.281000",[],科教文化服务,学校,学校,121.499959,31.281,"121.495523,31.282997",121.495523,31.282997,POINT (121.495523 31.282997),教育
B0FFIA3IJY,上海修逸文化传播有限公司,凤城路5-10临控江路街道创业园,科教文化服务;传媒机构;传媒机构,141100,310000,上海市,21,上海市,310110,杨浦区,四平路,"121.525476,31.274184",[],科教文化服务,传媒机构,传媒机构,121.525476,31.274184,"121.521131,31.276258",121.521131,31.276258,POINT (121.521131 31.276258),教育
B00156Z10Q,同济大学四平路校区西南1楼,四平路1239号同济大学四平路校区,科教文化服务;学校;学校,141200,310000,上海市,21,上海市,310110,杨浦区,四平路,"121.499161,31.283808",[],科教文化服务,学校,学校,121.499161,31.283808,"121.494722,31.285801",121.494722,31.285801,POINT (121.494722 31.285801),教育
B00157HZZQ,上海开放大学残疾人教育学院杨浦区学习中心(许昌路),许昌路1461号,科教文化服务;学校;成人教育,141205,310000,上海市,21,上海市,310110,杨浦区,四平路,"121.513729,31.270080",[],科教文化服务,学校,成人教育,121.513729,31.27008,"121.509344,31.272122",121.509344,31.272122,POINT (121.509344 31.272122),教育
B00155MMUN,同济大学四平路校区国际文化交流学院,四平路1239号同济大学四平路校区,科教文化服务;学校;高等院校,141201,310000,上海市,21,上海市,310110,杨浦区,四平路,"121.499236,31.280381",[],科教文化服务,学校,高等院校,121.499236,31.280381,"121.494798,31.282376",121.494798,31.282376,POINT (121.494798 31.282376),教育
B0FFG3XTVI,同济大学四平路校区城规C楼,四平路1239号,科教文化服务;学校;学校,141200,310000,上海市,21,上海市,310110,杨浦区,四平路,"121.505796,31.285084",[],科教文化服务,学校,学校,121.505796,31.285084,"121.501381,31.287096",121.501381,31.287096,POINT (121.501381 31.287096),教育
B0GR3LK1FB,上海集英文化传播有限公司,许昌路1296号,科教文化服务;科教文化场所;科教文化场所,140000,310000,上海市,21,上海市,310110,杨浦区,四平路,"121.516396,31.267978",[],科教文化服务,科教文化场所,科教文化场所,121.516396,31.267978,"121.51202,31.270029",121.51202,31.270029,POINT (121.51202 31.270029),教育
B00154DBQA,上海市小儿先天性心脏病研究所,控江路1665号上海交通大学医学院附属新华医院科研大楼九楼,科教文化服务;科研机构;科研机构,141300,310000,上海市,21,上海市,310110,杨浦区,四平路,"121.517051,31.274182",[],科教文化服务,科研机构,科研机构,121.517051,31.274182,"121.512677,31.276232",121.512677,31.276232,POINT (121.512677 31.276232),教育
B00155KQ1S,上海市赤峰进修学院,赤峰路53号神往大酒店,科教文化服务;学校;成人教育,141205,310000,上海市,21,上海市,310110,杨浦区,四平路,"121.502179,31.278713",[],科教文化服务,学校,成人教育,121.502179,31.278713,"121.497752,31.280717",121.497752,31.280717,POINT (121.497752 31.280717),教育
B0FFHFHGAI,三才培训人力资源(大连路杨浦校区),大连路1548号莱克商务中心5层503,科教文化服务;培训机构;培训机构,141400,310000,上海市,21,上海市,310110,杨浦区,四平路,"121.503530,31.273516",[],科教文化服务,培训机构,培训机构,121.50353,31.273516,"121.499108,31.275526",121.499108,31.275526,POINT (121.499108 31.275526),教育
B0G2M1ZHO2,乐课力教育(控江校区),控江路2067号3楼,科教文化服务;培训机构;培训机构,141400,310000,上海市,21,上海市,310110,杨浦区,四平路,"121.507753,31.271246",4000000808,科教文化服务,培训机构,培训机构,121.507753,31.271246,"121.503346,31.27327",121.503346,31.27327,POINT (121.503346 31.27327),教育
B0FFG585G7,同济大学四平路校区工科数学教学基地,四平路1239号同济大学四平路校区致远楼,科教文化服务;学校;高等院校,141201,310000,上海市,21,上海市,310110,杨浦区,四平路,"121.497971,31.284438",[],科教文化服务,学校,高等院校,121.497971,31.284438,"121.493528,31.286427",121.493528,31.286427,POINT (121.493528 31.286427),教育
B00155KDMN,同济大学四平路校区环境与可持续发展学院,四平路1239号同济大学四平路校区,科教文化服务;学校;高等院校,141201,310000,上海市,21,上海市,310110,杨浦区,四平路,"121.497207,31.284168",[],科教文化服务,学校,高等院校,121.497207,31.284168,"121.492761,31.286155",121.492761,31.286155,POINT (121.492761 31.286155),教育
B0FFFE4XO3,同济大学四平路校区南区第三教学楼,赤峰路67同济大学南校区,科教文化服务;学校;学校,141200,310000,上海市,21,上海市,310110,杨浦区,四平路,"121.499328,31.280566",[],科教文化服务,学校,学校,121.499328,31.280566,"121.49489,31.282561",121.49489,31.282561,POINT (121.49489 31.282561),教育
B0FFH8DDKB,同济大学经济与管理学院(赤峰路),四平路,科教文化服务;学校;高等院校,141201,310000,上海市,21,上海市,310110,杨浦区,四平路,"121.499957,31.280998",[],科教文化服务,学校,高等院校,121.499957,31.280998,"121.495521,31.282995",121.495521,31.282995,POINT (121.495521 31.282995),教育
B0FFL2XSNT,同济大学马克思主义学院,四平路1239号同济大学综合楼,科教文化服务;学校;高等院校,141201,310000,上海市,21,上海市,310110,杨浦区,四平路,"121.506643,31.284282",[],科教文化服务,学校,高等院校,121.506643,31.284282,"121.502231,31.286297",121.502231,31.286297,POINT (121.502231 31.286297),教育
B0FFHU7TOW,上海市创业专修学院,江浦路1508号附近,科教文化服务;学校;成人教育,141205,310000,上海市,21,上海市,310110,杨浦区,四平路,"121.519675,31.274086",[],科教文化服务,学校,成人教育,121.519675,31.274086,"121.51531,31.276144",121.51531,31.276144,POINT (121.51531 31.276144),教育
B00156YKV3,同济大学四平路校区机械馆,赤峰路200号同济大学四平路校区,科教文化服务;学校;高等院校,141201,310000,上海市,21,上海市,310110,杨浦区,四平路,"121.49833,31.283567",[],科教文化服务,学校,高等院校,121.49833,31.283567,"121.493888,31.285558",121.493888,31.285558,POINT (121.493888 31.285558),教育
B0FFGHEO7X,思创教育,中山北二路1121号同济科技大厦6楼,科教文化服务;培训机构;培训机构,141400,310000,上海市,21,上海市,310110,杨浦区,四平路,"121.504245,31.286837",[],科教文化服务,培训机构,培训机构,121.504245,31.286837,"121.499824,31.288844",121.499824,31.288844,POINT (121.499824 31.288844),教育
B0FFLCVGNB,有筑学社,写意创意中心2楼201市室(四平路地铁站1号口步行400米),科教文化服务;科教文化场所;科教文化场所,140000,310000,上海市,21,上海市,310110,杨浦区,四平路,"121.503976,31.278067",[],科教文化服务,科教文化场所,科教文化场所,121.503976,31.278067,"121.499555,31.280077",121.499555,31.280077,POINT (121.499555 31.280077),教育
B0FFKTCNQB,巍尔留学,控江路2068号旭辉海上国际1号楼5层519室,科教文化服务;科教文化场所;科教文化场所,140000,310000,上海市,21,上海市,310110,杨浦区,四平路,"121.508553,31.273756",021-60945988;4006027766,科教文化服务,科教文化场所,科教文化场所,121.508553,31.273756,"121.504149,31.275781",121.504149,31.275781,POINT (121.504149 31.275781),教育
B0FFLIDYLH,上海唯谦文化传播有限公司,国泰路11号18楼(国权路地铁站3号口步行350米),科教文化服务;科教文化场所;科教文化场所,140000,310000,上海市,21,上海市,310110,杨浦区,四平路,"121.508460,31.287915",[],科教文化服务,科教文化场所,科教文化场所,121.50846,31.287915,"121.504054,31.289934",121.504054,31.289934,POINT (121.504054 31.289934),教育
B0I6B93GY1,上海伊辉文化传播有限公司,黄兴路2077号蓝天大厦(五角场地铁站2号口步行270米),科教文化服务;科教文化场所;科教文化场所,140000,310000,上海市,21,上海市,310110,杨浦区,四平路,"121.516225,31.297677",[],科教文化服务,科教文化场所,科教文化场所,121.516225,31.297677,"121.511846,31.299715",121.511846,31.299715,POINT (121.511846 31.299715),教育
B0H129C963,天野考场,黄兴路1737号九隆坊3楼亚龙美食城,科教文化服务;驾校;驾校,141500,310000,上海市,21,上海市,310110,杨浦区,四平路,"121.518793,31.291224",[],科教文化服务,驾校,驾校,121.518793,31.291224,"121.514424,31.293272",121.514424,31.293272,POINT (121.514424 31.293272),教育
B0IGUMV6NU,房屋托管,辽源西路与打虎山路交叉口东80米,科教文化服务;培训机构;培训机构,141400,310000,上海市,21,上海市,310110,杨浦区,四平路,"121.511985,31.268847",[],科教文化服务,培训机构,培训机构,121.511985,31.268847,"121.507594,31.270885",121.507594,31.270885,POINT (121.507594 31.270885),教育
B0FFHPX91M,BTC陆家嘴银行培训中心,四平路2158号富庆国定大厦,科教文化服务;培训机构;培训机构,141400,310000,上海市,21,上海市,310110,杨浦区,四平路,"121.513660,31.294727",[],科教文化服务,培训机构,培训机构,121.51366,31.294727,"121.509272,31.296759",121.509272,31.296759,POINT (121.509272 31.296759),教育
B0FFLOG7VR,风雅颂,控江路街道控江路1690号凤凰大厦,科教文化服务;培训机构;培训机构,141400,310000,上海市,21,上海市,310110,杨浦区,四平路,"121.514050,31.275495",[],科教文化服务,培训机构,培训机构,121.51405,31.275495,"121.509665,31.277536",121.509665,31.277536,POINT (121.509665 31.277536),教育
B0I65H826O,优于杨素养成长中心,控江路1777号君欣时代广场5层,科教文化服务;培训机构;培训机构,141400,310000,上海市,21,上海市,310110,杨浦区,四平路,"121.514247,31.273391",[],科教文化服务,培训机构,培训机构,121.514247,31.273391,"121.509863,31.275433",121.509863,31.275433,POINT (121.509863 31.275433),教育
B0FFI1HP4P,智勇教育·未来科学家实验场,本溪路与鞍山路交叉口东北120米,科教文化服务;培训机构;培训机构,141400,310000,上海市,21,上海市,310110,杨浦区,四平路,"121.514056,31.275496",[],科教文化服务,培训机构,培训机构,121.514056,31.275496,"121.509671,31.277537",121.509671,31.277537,POINT (121.509671 31.277537),教育
B0FFIBV5H3,恩波教育,国定路335号二号楼810,科教文化服务;培训机构;培训机构,141400,310000,上海市,21,上海市,310110,杨浦区,四平路,"121.508659,31.297117",[],科教文化服务,培训机构,培训机构,121.508659,31.297117,"121.504253,31.299133",121.504253,31.299133,POINT (121.504253 31.299133),教育
B0IG2U9ANM,YT塑形舞蹈中心,四平路2500号金岛大厦1804,科教文化服务;培训机构;培训机构,141400,310000,上海市,21,上海市,310110,杨浦区,四平路,"121.515523,31.298613",13122993513,科教文化服务,培训机构,培训机构,121.515523,31.298613,"121.511142,31.300649",121.511142,31.300649,POINT (121.511142 31.300649),教育
B0FFH7C6YI,瓦萨里艺术,控江路2061号五环大厦东座10楼,科教文化服务;培训机构;培训机构,141400,310000,上海市,21,上海市,310110,杨浦区,四平路,"121.508601,31.271697",[],科教文化服务,培训机构,培训机构,121.508601,31.271697,"121.504197,31.273723",121.504197,31.273723,POINT (121.504197 31.273723),教育
B00157HZVP,上海欣阁影视,江浦路1508号东方星座酒店公寓14层1409,科教文化服务;传媒机构;传媒机构,141100,310000,上海市,21,上海市,310110,杨浦区,四平路,"121.519478,31.274098",[],科教文化服务,传媒机构,传媒机构,121.519478,31.274098,"121.515113,31.276155",121.515113,31.276155,POINT (121.515113 31.276155),教育
B0FFHLZV6B,EKP自然教育中心,本溪路189弄凤凰大楼3号楼2楼,科教文化服务;科教文化场所;科教文化场所,140000,310000,上海市,21,上海市,310110,杨浦区,四平路,"121.513929,31.275473",[],科教文化服务,科教文化场所,科教文化场所,121.513929,31.275473,"121.509544,31.277514",121.509544,31.277514,POINT (121.509544 31.277514),教育
B0J1V7BUJZ,杆杆台球,大连路1546号B1层(四平路地铁站3号口步行280米),科教文化服务;科教文化场所;科教文化场所,140000,310000,上海市,21,上海市,310110,杨浦区,四平路,"121.504317,31.272704",13621745393,科教文化服务,科教文化场所,科教文化场所,121.504317,31.272704,"121.499898,31.274717",121.499898,31.274717,POINT (121.499898 31.274717),教育
B0H2P7SME1,飞鹿学车报名处(四平路店),大连西路14号-12室(四平路地铁站4号口步行260米),科教文化服务;驾校;驾校,141500,310000,上海市,21,上海市,310110,杨浦区,四平路,"121.499564,31.276217",15062697592,科教文化服务,驾校,驾校,121.499564,31.276217,"121.495127,31.278214",121.495127,31.278214,POINT (121.495127 31.278214),教育
B0J11SASIC,上海杨浦宜荷瑞吉欧幼儿园,四平路1020弄鞍山五村49号,科教文化服务;学校;幼儿园,141204,310000,上海市,21,上海市,310110,杨浦区,四平路,"121.504927,31.275800",[],科教文化服务,学校,幼儿园,121.504927,31.2758,"121.50051,31.277814",121.50051,31.277814,POINT (121.50051 31.277814),教育
