id,name,address,type,typecode,pcode,pname,citycode,cityname,adcode,adname,business_area,location,tel,bigType,midType,smallType,gcj_lng,gcj_lat,wgs84_loc,wgs84Lng,wgs84Lat,geometry,function_type
B0FFFOGAVF,上海德国中心,四平路1239号同济大学四平路校区科学苑,商务住宅;商务住宅相关;商务住宅相关,120000,310000,上海市,21,上海市,310110,杨浦区,四平路,"121.50551,31.282219",[],商务住宅,商务住宅相关,商务住宅相关,121.50551,31.282219,"121.501094,31.284232",121.501094,31.284232,POINT (121.501094 31.284232),居住
B0FFFFPJZQ,杨浦区大学生(青年)创业园,四平路1939-4附近(国权路地铁站1号口步行190米),商务住宅;产业园区;产业园区,120100,310000,上海市,21,上海市,310110,杨浦区,四平路,"121.510613,31.290708",[],商务住宅,产业园区,产业园区,121.510613,31.290708,"121.506215,31.292732",121.506215,31.292732,POINT (121.506215 31.292732),居住
B00155L2R0,国顺住宅小区,国顺路400弄1-22号,商务住宅;住宅区;住宅小区,120302,310000,上海市,21,上海市,310110,杨浦区,四平路,"121.508899,31.293329",[],商务住宅,住宅区,住宅小区,121.508899,31.293329,"121.504495,31.295347",121.504495,31.295347,POINT (121.504495 31.295347),居住
B00156NT54,国顺路300弄住宅小区,国顺路300弄1-14号,商务住宅;住宅区;住宅小区,120302,310000,上海市,21,上海市,310110,杨浦区,四平路,"121.512177,31.29213",[],商务住宅,住宅区,住宅小区,121.512177,31.29213,"121.507784,31.294159",121.507784,31.294159,POINT (121.507784 31.294159),居住
B00155KECF,锦西路六十三弄住宅小区,锦西路与鞍山路交叉口东北约100米,商务住宅;住宅区;住宅小区,120302,310000,上海市,21,上海市,310110,杨浦区,四平路,"121.512347,31.277097",[],商务住宅,住宅区,住宅小区,121.512347,31.277097,"121.507956,31.279132",121.507956,31.279132,POINT (121.507956 31.279132),居住
B00155L2JG,鞍山三村住宅小区,鞍山三村13-14号,商务住宅;住宅区;住宅小区,120302,310000,上海市,21,上海市,310110,杨浦区,四平路,"121.512739,31.278174",[],商务住宅,住宅区,住宅小区,121.512739,31.278174,"121.50835,31.28021",121.50835,31.28021,POINT (121.50835 31.28021),居住
B00155KEBG,鞍山八村住宅小区,彰武路,商务住宅;住宅区;住宅小区,120302,310000,上海市,21,上海市,310110,杨浦区,四平路,"121.511055,31.280342",[],商务住宅,住宅区,住宅小区,121.511055,31.280342,"121.506659,31.282372",121.506659,31.282372,POINT (121.506659 31.282372),居住
B0FFJEUANV,四平住宅小区四平路2065弄,政化路与国定路交叉口南约160米,商务住宅;住宅区;住宅小区,120302,310000,上海市,21,上海市,310110,杨浦区,四平路,"121.511639,31.293447",[],商务住宅,住宅区,住宅小区,121.511639,31.293447,"121.507244,31.295473",121.507244,31.295473,POINT (121.507244 31.295473),居住
B0FFHUCTHO,四平住宅小区国顺路310弄,国顺路与政化路交叉口东约40米,商务住宅;住宅区;住宅小区,120302,310000,上海市,21,上海市,310110,杨浦区,四平路,"121.511018,31.292242",[],商务住宅,住宅区,住宅小区,121.511018,31.292242,"121.506621,31.294267",121.506621,31.294267,POINT (121.506621 31.294267),居住
B0FFG75MLP,益华小区,政本路与国科路交叉口北约80米,商务住宅;住宅区;住宅小区,120302,310000,上海市,21,上海市,310110,杨浦区,四平路,"121.515378,31.286488",[],商务住宅,住宅区,住宅小区,121.515378,31.286488,"121.510997,31.288528",121.510997,31.288528,POINT (121.510997 31.288528),居住
B0FFGDWP57,蓝天小区(政本路),黄兴路2053号,商务住宅;住宅区;住宅小区,120302,310000,上海市,21,上海市,310110,杨浦区,四平路,"121.51597,31.296135",[],商务住宅,住宅区,住宅小区,121.51597,31.296135,"121.51159,31.298173",121.51159,31.298173,POINT (121.51159 31.298173),居住
B00155KFIF,建信小区(打虎山路),打虎山路17-5号附近,商务住宅;住宅区;住宅小区,120302,310000,上海市,21,上海市,310110,杨浦区,四平路,"121.5088,31.270767",[],商务住宅,住宅区,住宅小区,121.5088,31.270767,"121.504397,31.272794",121.504397,31.272794,POINT (121.504397 31.272794),居住
B0FFHEL1U9,密云小区东区,大连西路30弄,商务住宅;住宅区;住宅小区,120302,310000,上海市,21,上海市,310110,杨浦区,四平路,"121.497138,31.278883",[],商务住宅,住宅区,住宅小区,121.497138,31.278883,"121.492692,31.280872",121.492692,31.280872,POINT (121.492692 31.280872),居住
B00155KTT2,抚顺路363弄小区,抚顺路363弄,商务住宅;住宅区;住宅小区,120302,310000,上海市,21,上海市,310110,杨浦区,四平路,"121.511154,31.277943",[],商务住宅,住宅区,住宅小区,121.511154,31.277943,"121.506759,31.279974",121.506759,31.279974,POINT (121.506759 31.279974),居住
B00154DVE2,江浦路1275弄小区,江浦路1275弄1-23号,商务住宅;住宅区;住宅小区,120302,310000,上海市,21,上海市,310110,杨浦区,四平路,"121.519151,31.270547",[],商务住宅,住宅区,住宅小区,121.519151,31.270547,"121.514785,31.272605",121.514785,31.272605,POINT (121.514785 31.272605),居住
B00155R069,大连路1188弄小区,大连路1188弄,商务住宅;住宅区;住宅小区,120302,310000,上海市,21,上海市,310110,杨浦区,四平路,"121.506927,31.267868",[],商务住宅,住宅区,住宅小区,121.506927,31.267868,"121.502518,31.269891",121.502518,31.269891,POINT (121.502518 31.269891),居住
B00155KFXZ,国权路336弄小区,国权路336弄1-12号,商务住宅;住宅区;住宅小区,120302,310000,上海市,21,上海市,310110,杨浦区,四平路,"121.508174,31.290905",[],商务住宅,住宅区,住宅小区,121.508174,31.290905,"121.503767,31.292922",121.503767,31.292922,POINT (121.503767 31.292922),居住
B00155KUIC,本溪路165弄小区,本溪路165弄1-10号,商务住宅;住宅区;住宅小区,120302,310000,上海市,21,上海市,310110,杨浦区,四平路,"121.514974,31.275577",[],商务住宅,住宅区,住宅小区,121.514974,31.275577,"121.510593,31.277621",121.510593,31.277621,POINT (121.510593 31.277621),居住
B00155KFRE,国定路288弄小区,国定路288弄1-26号,商务住宅;住宅区;住宅小区,120302,310000,上海市,21,上海市,310110,杨浦区,四平路,"121.511156,31.295581",[],商务住宅,住宅区,住宅小区,121.511156,31.295581,"121.506759,31.297605",121.506759,31.297605,POINT (121.506759 31.297605),居住
B00155KTS4,国顺路120弄小区,国顺路120附近,商务住宅;住宅区;住宅小区,120302,310000,上海市,21,上海市,310110,杨浦区,四平路,"121.516181,31.291119",[],商务住宅,住宅区,住宅小区,121.516181,31.291119,"121.511803,31.29316",121.511803,31.29316,POINT (121.511803 31.29316),居住
B00155KG4N,彰武路120弄小区,彰武路120弄,商务住宅;住宅区;住宅小区,120302,310000,上海市,21,上海市,310110,杨浦区,四平路,"121.513112,31.283166",[],商务住宅,住宅区,住宅小区,121.513112,31.283166,"121.508723,31.285201",121.508723,31.285201,POINT (121.508723 31.285201),居住
B00155KFXS,国顺路375弄小区,四平路,商务住宅;住宅区;住宅小区,120302,310000,上海市,21,上海市,310110,杨浦区,四平路,"121.510705,31.291714",[],商务住宅,住宅区,住宅小区,121.510705,31.291714,"121.506307,31.293738",121.506307,31.293738,POINT (121.506307 31.293738),居住
B00155KEBS,辽源三村小区,许昌路1487弄之1-4号,商务住宅;住宅区;住宅小区,120302,310000,上海市,21,上海市,310110,杨浦区,四平路,"121.511359,31.271209",[],商务住宅,住宅区,住宅小区,121.511359,31.271209,"121.506965,31.273244",121.506965,31.273244,POINT (121.506965 31.273244),居住
B00155FOZR,国定路140弄小区,国定路140弄1-3号,商务住宅;住宅区;住宅小区,120302,310000,上海市,21,上海市,310110,杨浦区,四平路,"121.514942,31.294786",[],商务住宅,住宅区,住宅小区,121.514942,31.294786,"121.510559,31.296822",121.510559,31.296822,POINT (121.510559 31.296822),居住
B00155KF8Y,飞虹路723弄小区,飞虹路723弄1-11号,商务住宅;住宅区;住宅小区,120302,310000,上海市,21,上海市,310110,杨浦区,四平路,"121.513555,31.266991",[],商务住宅,住宅区,住宅小区,121.513555,31.266991,"121.509169,31.269034",121.509169,31.269034,POINT (121.509169 31.269034),居住
B0HDH7E2XS,飞虹路755弄小区,飞虹路755弄,商务住宅;住宅区;住宅小区,120302,310000,上海市,21,上海市,310110,杨浦区,四平路,"121.513433,31.267173",[],商务住宅,住宅区,住宅小区,121.513433,31.267173,"121.509047,31.269216",121.509047,31.269216,POINT (121.509047 31.269216),居住
B0FFGFILWT,鞍山路310弄小区,阜新路与鞍山路交叉口东北约80米,商务住宅;住宅区;住宅小区,120302,310000,上海市,21,上海市,310110,杨浦区,四平路,"121.508870,31.279994",[],商务住宅,住宅区,住宅小区,121.50887,31.279994,"121.504467,31.282018",121.504467,31.282018,POINT (121.504467 31.282018),居住
B0FFGFI3KA,许昌路1350弄小区,许昌路与飞虹路交叉口北约40米,商务住宅;商务住宅相关;商务住宅相关,120000,310000,上海市,21,上海市,310110,杨浦区,四平路,"121.515765,31.269076",[],商务住宅,商务住宅相关,商务住宅相关,121.515765,31.269076,"121.511387,31.271125",121.511387,31.271125,POINT (121.511387 31.271125),居住
B0FFGFIHE5,国顺路389弄小区,国顺路与政熙路交叉口东南约60米,商务住宅;商务住宅相关;商务住宅相关,120000,310000,上海市,21,上海市,310110,杨浦区,四平路,"121.509401,31.292480",[],商务住宅,商务住宅相关,商务住宅相关,121.509401,31.29248,"121.504998,31.2945",121.504998,31.2945,POINT (121.504998 31.2945),居住
B0FFH10WIM,本溪路149弄小区,本溪路与铁岭路交叉口东约80米,商务住宅;住宅区;住宅小区,120302,310000,上海市,21,上海市,310110,杨浦区,四平路,"121.516289,31.276096",[],商务住宅,住宅区,住宅小区,121.516289,31.276096,"121.511912,31.278143",121.511912,31.278143,POINT (121.511912 31.278143),居住
B0FFGNNOT9,锦西路150弄小区,锦西路与打虎山路交叉口东约40米,商务住宅;商务住宅相关;商务住宅相关,120000,310000,上海市,21,上海市,310110,杨浦区,四平路,"121.507965,31.273484",[],商务住宅,商务住宅相关,商务住宅相关,121.507965,31.273484,"121.503559,31.275508",121.503559,31.275508,POINT (121.503559 31.275508),居住
B00155L2P8,国年路99弄小区,国年路99弄,商务住宅;住宅区;住宅小区,120302,310000,上海市,21,上海市,310110,杨浦区,四平路,"121.508413,31.291708",[],商务住宅,住宅区,住宅小区,121.508413,31.291708,"121.504007,31.293726",121.504007,31.293726,POINT (121.504007 31.293726),居住
B0FFFWV8ZD,双辽路155弄小区,双辽路155弄(近周家嘴路),商务住宅;住宅区;住宅小区,120302,310000,上海市,21,上海市,310110,杨浦区,四平路,"121.518114,31.270491",[],商务住宅,住宅区,住宅小区,121.518114,31.270491,"121.513744,31.272546",121.513744,31.272546,POINT (121.513744 31.272546),居住
B00155IKPY,国权路230弄小区,国权路230弄,商务住宅;住宅区;住宅小区,120302,310000,上海市,21,上海市,310110,杨浦区,四平路,"121.511942,31.289462",[],商务住宅,住宅区,住宅小区,121.511942,31.289462,"121.507549,31.291491",121.507549,31.291491,POINT (121.507549 31.291491),居住
B00155KFS8,控江路2026弄小区,控江路2026弄9-32号,商务住宅;住宅区;住宅小区,120302,310000,上海市,21,上海市,310110,杨浦区,四平路,"121.510096,31.27394",[],商务住宅,住宅区,住宅小区,121.510096,31.27394,"121.505697,31.27597",121.505697,31.27597,POINT (121.505697 31.27597),居住
B0FFF3AU0G,四平路949弄小区,四平路943附近,商务住宅;住宅区;住宅小区,120302,310000,上海市,21,上海市,310110,杨浦区,四平路,"121.501612,31.275503",[],商务住宅,住宅区,住宅小区,121.501612,31.275503,"121.497183,31.277507",121.497183,31.277507,POINT (121.497183 31.277507),居住
B00156NY35,江浦路1315弄小区,江浦路1315弄,商务住宅;住宅区;住宅小区,120302,310000,上海市,21,上海市,310110,杨浦区,四平路,"121.519099,31.271166",[],商务住宅,住宅区,住宅小区,121.519099,31.271166,"121.514732,31.273223",121.514732,31.273223,POINT (121.514732 31.273223),居住
B00155HI6H,国泰路60弄小区,国泰路60弄之1-8号,商务住宅;住宅区;住宅小区,120302,310000,上海市,21,上海市,310110,杨浦区,四平路,"121.507783,31.289047",[],商务住宅,住宅区,住宅小区,121.507783,31.289047,"121.503375,31.291064",121.503375,31.291064,POINT (121.503375 31.291064),居住
B00155KG3W,江浦路1709弄小区,江浦路1709弄1-5号,商务住宅;住宅区;住宅小区,120302,310000,上海市,21,上海市,310110,杨浦区,四平路,"121.517266,31.278224",[],商务住宅,住宅区,住宅小区,121.517266,31.278224,"121.512892,31.280273",121.512892,31.280273,POINT (121.512892 31.280273),居住
B00155KFXT,政熙路68弄小区,政熙路68弄,商务住宅;住宅区;住宅小区,120302,310000,上海市,21,上海市,310110,杨浦区,四平路,"121.507075,31.289711",[],商务住宅,住宅区,住宅小区,121.507075,31.289711,"121.502664,31.291725",121.502664,31.291725,POINT (121.502664 31.291725),居住
B00155KQ50,铁岭路10弄小区,铁岭路10弄1-17号,商务住宅;住宅区;住宅小区,120302,310000,上海市,21,上海市,310110,杨浦区,四平路,"121.515683,31.277313",[],商务住宅,住宅区,住宅小区,121.515683,31.277313,"121.511304,31.279358",121.511304,31.279358,POINT (121.511304 31.279358),居住
B00155L37G,大连西路40弄小区,大连西路40弄,商务住宅;住宅区;住宅小区,120302,310000,上海市,21,上海市,310110,杨浦区,四平路,"121.497085,31.276666",[],商务住宅,住宅区,住宅小区,121.497085,31.276666,"121.492639,31.278656",121.492639,31.278656,POINT (121.492639 31.278656),居住
B00156COCS,鞍山七村小区,打虎山路110号,商务住宅;住宅区;住宅小区,120302,310000,上海市,21,上海市,310110,杨浦区,四平路,"121.503476,31.274251",[],商务住宅,住宅区,住宅小区,121.503476,31.274251,"121.499054,31.276261",121.499054,31.276261,POINT (121.499054 31.276261),居住
B00155KFHV,打虎山路6弄小区,打虎山路6弄1-12号,商务住宅;住宅区;住宅小区,120302,310000,上海市,21,上海市,310110,杨浦区,四平路,"121.511568,31.269156",[],商务住宅,住宅区,住宅小区,121.511568,31.269156,"121.507175,31.271192",121.507175,31.271192,POINT (121.507175 31.271192),居住
B00155KFYR,打虎山路118弄小区,打虎山路118弄之1-4号,商务住宅;住宅区;住宅小区,120302,310000,上海市,21,上海市,310110,杨浦区,四平路,"121.507559,31.273748",[],商务住宅,住宅区,住宅小区,121.507559,31.273748,"121.503151,31.27577",121.503151,31.27577,POINT (121.503151 31.27577),居住
B00155KGB3,鞍山四村第二小区,阜新路182弄-184弄,商务住宅;住宅区;住宅小区,120302,310000,上海市,21,上海市,310110,杨浦区,四平路,"121.508415,31.278006",[],商务住宅,住宅区,住宅小区,121.508415,31.278006,"121.50401,31.280029",121.50401,31.280029,POINT (121.50401 31.280029),居住
B00154DOZ3,鞍山四村第三小区,阜新路180弄,商务住宅;住宅区;住宅小区,120302,310000,上海市,21,上海市,310110,杨浦区,四平路,"121.507797,31.275515",[],商务住宅,住宅区,住宅小区,121.507797,31.275515,"121.50339,31.277537",121.50339,31.277537,POINT (121.50339 31.277537),居住
B00155KVX3,鞍山四村第一小区,抚顺路393弄之1-20号,商务住宅;住宅区;住宅小区,120302,310000,上海市,21,上海市,310110,杨浦区,四平路,"121.510036,31.27659",[],商务住宅,住宅区,住宅小区,121.510036,31.27659,"121.505637,31.278619",121.505637,31.278619,POINT (121.505637 31.278619),居住
B00155L4LA,四平路街道鞍山一村第三小区,本溪路141弄之1号-22号,商务住宅;住宅区;住宅小区,120302,310000,上海市,21,上海市,310110,杨浦区,四平路,"121.517175,31.275912",[],商务住宅,住宅区,住宅小区,121.517175,31.275912,"121.512801,31.277962",121.512801,31.277962,POINT (121.512801 31.277962),居住
B00155L3DP,鞍山五村,四平路1020弄,商务住宅;住宅区;住宅小区,120302,310000,上海市,21,上海市,310110,杨浦区,四平路,"121.50514,31.276441",[],商务住宅,住宅区,住宅小区,121.50514,31.276441,"121.500723,31.278455",121.500723,31.278455,POINT (121.500723 31.278455),居住
B00155KFNK,鞍山一村,锦西路48号,商务住宅;住宅区;住宅小区,120302,310000,上海市,21,上海市,310110,杨浦区,四平路,"121.513176,31.276691",[],商务住宅,住宅区,住宅小区,121.513176,31.276691,"121.508788,31.278729",121.508788,31.278729,POINT (121.508788 31.278729),居住
B00152B517,鼎盛公寓(中山北二路),中山北二路1021弄,商务住宅;住宅区;住宅小区,120302,310000,上海市,21,上海市,310110,杨浦区,四平路,"121.506052,31.286371",[],商务住宅,住宅区,住宅小区,121.506052,31.286371,"121.501638,31.288384",121.501638,31.288384,POINT (121.501638 31.288384),居住
B0FFIB5DXS,出国金融中心,许昌路1568附近,商务住宅;商务住宅相关;商务住宅相关,120000,310000,上海市,21,上海市,310110,杨浦区,四平路,"121.512602,31.272488",[],商务住宅,商务住宅相关,商务住宅相关,121.512602,31.272488,"121.508213,31.274526",121.508213,31.274526,POINT (121.508213 31.274526),居住
B0015747SZ,上海同济书香日租公寓,赤峰路59弄近四平路(同济大学本部南校门对面),商务住宅;商务住宅相关;商务住宅相关,120000,310000,上海市,21,上海市,310110,杨浦区,四平路,"121.502057,31.279567",13512187235,商务住宅,商务住宅相关,商务住宅相关,121.502057,31.279567,"121.497629,31.28157",121.497629,31.28157,POINT (121.497629 31.28157),居住
B00155KEDH,辽源四村小区,控江路1959-1967号,商务住宅;住宅区;住宅小区,120302,310000,上海市,21,上海市,310110,杨浦区,四平路,"121.510554,31.272293",[],商务住宅,住宅区,住宅小区,121.510554,31.272293,"121.506157,31.274325",121.506157,31.274325,POINT (121.506157 31.274325),居住
B00155KG98,鞍山六村,打虎山路110号,商务住宅;住宅区;住宅小区,120302,310000,上海市,21,上海市,310110,杨浦区,四平路,"121.504457,31.275063",[],商务住宅,住宅区,住宅小区,121.504457,31.275063,"121.500038,31.277076",121.500038,31.277076,POINT (121.500038 31.277076),居住
B0FFIHN230,江浦路1515号国际青年公寓,杨浦区江浦路1515号,商务住宅;商务住宅相关;商务住宅相关,120000,310000,上海市,21,上海市,310110,杨浦区,四平路,"121.517840,31.275696",021-65670231,商务住宅,商务住宅相关,商务住宅相关,121.51784,31.275696,"121.513469,31.277748",121.513469,31.277748,POINT (121.513469 31.277748),居住
B0FFF4WKDU,鞍山四村,杨浦抚顺路373弄、阜新路180弄、鞍山四村1-115号、锦西路171-177单号,商务住宅;商务住宅相关;商务住宅相关,120000,310000,上海市,21,上海市,310110,杨浦区,四平路,"121.506757,31.276591",[],商务住宅,商务住宅相关,商务住宅相关,121.506757,31.276591,"121.502346,31.27861",121.502346,31.27861,POINT (121.502346 31.27861),居住
B00155L2L3,海鹏公寓,黄兴路2019弄3号楼,商务住宅;住宅区;住宅小区,120302,310000,上海市,21,上海市,310110,杨浦区,四平路,"121.51726,31.294559",[],商务住宅,住宅区,住宅小区,121.51726,31.294559,"121.512885,31.296601",121.512885,31.296601,POINT (121.512885 31.296601),居住
B0FFKGWG4U,辽源公寓,辽源西路与大连路交叉口东约100米,商务住宅;商务住宅相关;商务住宅相关,120000,310000,上海市,21,上海市,310110,杨浦区,四平路,"121.507584,31.268650",[],商务住宅,商务住宅相关,商务住宅相关,121.507584,31.26865,"121.503177,31.270675",121.503177,31.270675,POINT (121.503177 31.270675),居住
B0FFJMG9E4,国金公馆,大连路373号附近,商务住宅;商务住宅相关;商务住宅相关,120000,310000,上海市,21,上海市,310110,杨浦区,四平路,"121.504382,31.272580",[],商务住宅,商务住宅相关,商务住宅相关,121.504382,31.27258,"121.499963,31.274593",121.499963,31.274593,POINT (121.499963 31.274593),居住
B0FFJ0NBSR,铁路新村杨浦,政修路与国达路交叉口东南约80米,商务住宅;商务住宅相关;商务住宅相关,120000,310000,上海市,21,上海市,310110,杨浦区,四平路,"121.509614,31.294315",[],商务住宅,商务住宅相关,商务住宅相关,121.509614,31.294315,"121.505212,31.296335",121.505212,31.296335,POINT (121.505212 31.296335),居住
B0FFHO1QQL,宝钢又一村南区,周家嘴路1683弄,商务住宅;住宅区;住宅小区,120302,310000,上海市,21,上海市,310110,杨浦区,四平路,"121.51269,31.265729",[],商务住宅,住宅区,住宅小区,121.51269,31.265729,"121.508301,31.26777",121.508301,31.26777,POINT (121.508301 31.26777),居住
B0FFGTHY5U,中远物业国年小区,国年路65弄之15-17号,商务住宅;住宅区;住宅小区,120302,310000,上海市,21,上海市,310110,杨浦区,四平路,"121.509293,31.291328",[],商务住宅,住宅区,住宅小区,121.509293,31.291328,"121.50489,31.293348",121.50489,31.293348,POINT (121.50489 31.293348),居住
B0FFGFJXV8,国权路320弄,国权路与政化路交叉口西北约60米,商务住宅;住宅区;住宅区,120300,310000,上海市,21,上海市,310110,杨浦区,四平路,"121.508983,31.290372",[],商务住宅,住宅区,住宅区,121.508983,31.290372,"121.504579,31.292392",121.504579,31.292392,POINT (121.504579 31.292392),居住
B0FFGFHUMR,双辽支路70弄小区,双辽支路与双辽路交叉口西约120米,商务住宅;商务住宅相关;商务住宅相关,120000,310000,上海市,21,上海市,310110,杨浦区,四平路,"121.516918,31.271006",[],商务住宅,商务住宅相关,商务住宅相关,121.516918,31.271006,"121.512544,31.273057",121.512544,31.273057,POINT (121.512544 31.273057),居住
B0FFGCBVXG,辽源一村,打虎山路11-4号附近,商务住宅;住宅区;住宅小区,120302,310000,上海市,21,上海市,310110,杨浦区,四平路,"121.509505,31.270624",[],商务住宅,住宅区,住宅小区,121.509505,31.270624,"121.505105,31.272653",121.505105,31.272653,POINT (121.505105 31.272653),居住
B0FFGBC09W,飞虹路760弄小区,飞虹路与通北路交叉口北约80米,商务住宅;住宅区;住宅小区,120302,310000,上海市,21,上海市,310110,杨浦区,四平路,"121.512946,31.267734",[],商务住宅,住宅区,住宅小区,121.512946,31.267734,"121.508558,31.269775",121.508558,31.269775,POINT (121.508558 31.269775),居住
B0FFGBBPU8,江浦路1285弄小区,江浦路1283-3号附近,商务住宅;住宅区;住宅小区,120302,310000,上海市,21,上海市,310110,杨浦区,四平路,"121.51952,31.2709",[],商务住宅,住宅区,住宅小区,121.51952,31.2709,"121.515155,31.272959",121.515155,31.272959,POINT (121.515155 31.272959),居住
B0FFFRFK4P,国顺路131弄小区,国顺路与政本路交叉口西南约160米,商务住宅;住宅区;住宅小区,120302,310000,上海市,21,上海市,310110,杨浦区,四平路,"121.51411,31.289571",[],商务住宅,住宅区,住宅小区,121.51411,31.289571,"121.509724,31.291606",121.509724,31.291606,POINT (121.509724 31.291606),居住
B0FFF5C7G5,海上国际,控江路2028号,商务住宅;住宅区;住宅区,120300,310000,上海市,21,上海市,310110,杨浦区,四平路,"121.509301,31.273471",[],商务住宅,住宅区,住宅区,121.509301,31.273471,"121.5049,31.275499",121.5049,31.275499,POINT (121.5049 31.275499),居住
B00157HZZZ,姚家桥小区,飞虹路1047弄2-48号,商务住宅;住宅区;住宅小区,120302,310000,上海市,21,上海市,310110,杨浦区,四平路,"121.5153,31.2681",[],商务住宅,住宅区,住宅小区,121.5153,31.2681,"121.51092,31.270148",121.51092,31.270148,POINT (121.51092 31.270148),居住
B00157HZQG,石油大楼,控江路1732-1734号,商务住宅;住宅区;住宅小区,120302,310000,上海市,21,上海市,310110,杨浦区,四平路,"121.513866,31.274152",[],商务住宅,住宅区,住宅小区,121.513866,31.274152,"121.509481,31.276193",121.509481,31.276193,POINT (121.509481 31.276193),居住
B00156NXAC,上海市血液中心杨浦分中心,江浦路1379号,商务住宅;商务住宅相关;商务住宅相关,120000,310000,上海市,21,上海市,310110,杨浦区,四平路,"121.518937,31.273115",[],商务住宅,商务住宅相关,商务住宅相关,121.518937,31.273115,"121.51457,31.275171",121.51457,31.275171,POINT (121.51457 31.275171),居住
B00156DDNI,同济新村,彰武路600号,商务住宅;住宅区;住宅小区,120302,310000,上海市,21,上海市,310110,杨浦区,四平路,"121.509834,31.283388",[],商务住宅,住宅区,住宅小区,121.509834,31.283388,"121.505434,31.285413",121.505434,31.285413,POINT (121.505434 31.285413),居住
B00156CMCR,申安公寓,鞍山路160弄,商务住宅;住宅区;住宅小区,120302,310000,上海市,21,上海市,310110,杨浦区,四平路,"121.511294,31.277281",[],商务住宅,住宅区,住宅小区,121.511294,31.277281,"121.506899,31.279313",121.506899,31.279313,POINT (121.506899 31.279313),居住
B00155LRLB,君欣豪庭,许昌路1588弄,商务住宅;住宅区;住宅小区,120302,310000,上海市,21,上海市,310110,杨浦区,四平路,"121.514011,31.272784",[],商务住宅,住宅区,住宅小区,121.514011,31.272784,"121.509626,31.274826",121.509626,31.274826,POINT (121.509626 31.274826),居住
B00155L4T4,茶园坊,黄兴路1717弄,商务住宅;住宅区;住宅小区,120302,310000,上海市,21,上海市,310110,杨浦区,四平路,"121.519354,31.289513",[],商务住宅,住宅区,住宅小区,121.519354,31.289513,"121.514987,31.291563",121.514987,31.291563,POINT (121.514987 31.291563),居住
B00155L3FY,通华大楼,四平路1230号甲,商务住宅;住宅区;住宅小区,120302,310000,上海市,21,上海市,310110,杨浦区,四平路,"121.505176,31.278466",[],商务住宅,住宅区,住宅小区,121.505176,31.278466,"121.500759,31.280479",121.500759,31.280479,POINT (121.500759 31.280479),居住
B00155L3DL,九州公寓,本溪路149弄1-17号,商务住宅;住宅区;住宅小区,120302,310000,上海市,21,上海市,310110,杨浦区,四平路,"121.516273,31.276042",[],商务住宅,住宅区,住宅小区,121.516273,31.276042,"121.511896,31.278089",121.511896,31.278089,POINT (121.511896 31.278089),居住
B00155L3DK,公交新村(阜新路),阜新路177-187号,商务住宅;住宅区;住宅小区,120302,310000,上海市,21,上海市,310110,杨浦区,四平路,"121.506205,31.277733",[],商务住宅,住宅区,住宅小区,121.506205,31.277733,"121.501792,31.27975",121.501792,31.27975,POINT (121.501792 31.27975),居住
B00155L3DH,华元豪庭,本溪路168弄,商务住宅;住宅区;住宅小区,120302,310000,上海市,21,上海市,310110,杨浦区,四平路,"121.514415,31.276335",[],商务住宅,住宅区,住宅小区,121.514415,31.276335,"121.510032,31.278377",121.510032,31.278377,POINT (121.510032 31.278377),居住
B00155L2QM,中通公寓,国权后路21号,商务住宅;住宅区;住宅小区,120302,310000,上海市,21,上海市,310110,杨浦区,四平路,"121.50454,31.289378",[],商务住宅,住宅区,住宅小区,121.50454,31.289378,"121.50012,31.291385",121.50012,31.291385,POINT (121.50012 31.291385),居住
B00155L2QK,复旦书馨公寓,国权后路19号,商务住宅;住宅区;住宅小区,120302,310000,上海市,21,上海市,310110,杨浦区,四平路,"121.505008,31.289164",[],商务住宅,住宅区,住宅小区,121.505008,31.289164,"121.50059,31.291172",121.50059,31.291172,POINT (121.50059 31.291172),居住
B00155L2P6,国年路25弄小区,四平路1961-1号附近,商务住宅;住宅区;住宅小区,120302,310000,上海市,21,上海市,310110,杨浦区,四平路,"121.510316,31.29093",[],商务住宅,住宅区,住宅小区,121.510316,31.29093,"121.505917,31.292954",121.505917,31.292954,POINT (121.505917 31.292954),居住
B00155L2OG,黄兴公寓,黄兴路国权路1669弄11号,商务住宅;住宅区;住宅小区,120302,310000,上海市,21,上海市,310110,杨浦区,四平路,"121.520317,31.288115",[],商务住宅,住宅区,住宅小区,121.520317,31.288115,"121.515953,31.290169",121.515953,31.290169,POINT (121.515953 31.290169),居住
B00155L2OF,黄兴雅苑,国科路29弄,商务住宅;住宅区;住宅小区,120302,310000,上海市,21,上海市,310110,杨浦区,四平路,"121.519646,31.286495",[],商务住宅,住宅区,住宅小区,121.519646,31.286495,"121.51528,31.288547",121.51528,31.288547,POINT (121.51528 31.288547),居住
B00155L2NS,雪城公寓,许昌路1440弄之1-4号,商务住宅;住宅区;住宅小区,120302,310000,上海市,21,上海市,310110,杨浦区,四平路,"121.515319,31.269961",[],商务住宅,住宅区,住宅小区,121.515319,31.269961,"121.510939,31.272008",121.510939,31.272008,POINT (121.510939 31.272008),居住
B00155L2LT,海鸿公寓,国权路95弄,商务住宅;住宅区;住宅小区,120302,310000,上海市,21,上海市,310110,杨浦区,四平路,"121.516145,31.286914",[],商务住宅,住宅区,住宅小区,121.516145,31.286914,"121.511767,31.288956",121.511767,31.288956,POINT (121.511767 31.288956),居住
B00155L2LM,华丰大楼,国顺路280号,商务住宅;住宅区;住宅小区,120302,310000,上海市,21,上海市,310110,杨浦区,四平路,"121.513341,31.291362",[],商务住宅,住宅区,住宅小区,121.513341,31.291362,"121.508953,31.293394",121.508953,31.293394,POINT (121.508953 31.293394),居住
B00155L2LH,茗苑(国权路),国权路91弄,商务住宅;住宅区;住宅小区,120302,310000,上海市,21,上海市,310110,杨浦区,四平路,"121.516771,31.28752",[],商务住宅,住宅区,住宅小区,121.516771,31.28752,"121.512395,31.289564",121.512395,31.289564,POINT (121.512395 31.289564),居住
B00155L2LB,林绿家园,四平路1950弄,商务住宅;住宅区;住宅小区,120302,310000,上海市,21,上海市,310110,杨浦区,四平路,"121.51243,31.290479",[],商务住宅,住宅区,住宅小区,121.51243,31.290479,"121.508038,31.292509",121.508038,31.292509,POINT (121.508038 31.292509),居住
B00155L2L9,四季绿园,国顺路119弄,商务住宅;住宅区;住宅小区,120302,310000,上海市,21,上海市,310110,杨浦区,四平路,"121.515901,31.290035",[],商务住宅,住宅区,住宅小区,121.515901,31.290035,"121.511522,31.292075",121.511522,31.292075,POINT (121.511522 31.292075),居住
B00155L2L6,兴平昌苑,国定路101弄1-5号,商务住宅;住宅区;住宅小区,120302,310000,上海市,21,上海市,310110,杨浦区,四平路,"121.514687,31.293677",[],商务住宅,住宅区,住宅小区,121.514687,31.293677,"121.510303,31.295712",121.510303,31.295712,POINT (121.510303 31.295712),居住
B00155L2KA,皇朝新城,黄兴路1999弄1-3号,商务住宅;住宅区;住宅小区,120302,310000,上海市,21,上海市,310110,杨浦区,四平路,"121.518141,31.292564",[],商务住宅,住宅区,住宅小区,121.518141,31.292564,"121.513769,31.29461",121.513769,31.29461,POINT (121.513769 31.29461),居住
B00155L2JZ,馨怡花园,铁岭路28弄1-12号,商务住宅;住宅区;住宅小区,120302,310000,上海市,21,上海市,310110,杨浦区,四平路,"121.515825,31.278297",[],商务住宅,住宅区,住宅小区,121.515825,31.278297,"121.511446,31.280342",121.511446,31.280342,POINT (121.511446 31.280342),居住
B00155L2JW,怡福苑,国顺路66弄,商务住宅;住宅区;住宅小区,120302,310000,上海市,21,上海市,310110,杨浦区,四平路,"121.518614,31.291866",[],商务住宅,住宅区,住宅小区,121.518614,31.291866,"121.514244,31.293913",121.514244,31.293913,POINT (121.514244 31.293913),居住
B00155L2JO,英达苑,辽源西路338弄,商务住宅;住宅区;住宅小区,120302,310000,上海市,21,上海市,310110,杨浦区,四平路,"121.50696,31.269218",[],商务住宅,住宅区,住宅小区,121.50696,31.269218,"121.502551,31.271241",121.502551,31.271241,POINT (121.502551 31.271241),居住
B00155KWMK,许昌路1471弄小区,许昌路1471弄之1-3号,商务住宅;住宅区;住宅小区,120302,310000,上海市,21,上海市,310110,杨浦区,四平路,"121.513191,31.270314",[],商务住宅,住宅区,住宅小区,121.513191,31.270314,"121.508804,31.272355",121.508804,31.272355,POINT (121.508804 31.272355),居住
B00155KTSW,哈佛公寓,四平路1128号,商务住宅;住宅区;住宅小区,120302,310000,上海市,21,上海市,310110,杨浦区,四平路,"121.504967,31.277783",[],商务住宅,住宅区,住宅小区,121.504967,31.277783,"121.50055,31.279796",121.50055,31.279796,POINT (121.50055 31.279796),居住
B00155KRI0,大连西路26弄小区,大连西路26弄,商务住宅;住宅区;住宅小区,120302,310000,上海市,21,上海市,310110,杨浦区,四平路,"121.498361,31.276534",[],商务住宅,住宅区,住宅小区,121.498361,31.276534,"121.49392,31.278528",121.49392,31.278528,POINT (121.49392 31.278528),居住
B00155KQW7,凤凰大楼,本溪路189弄1-2号,商务住宅;住宅区;住宅小区,120302,310000,上海市,21,上海市,310110,杨浦区,四平路,"121.513936,31.275201",[],商务住宅,住宅区,住宅小区,121.513936,31.275201,"121.509551,31.277242",121.509551,31.277242,POINT (121.509551 31.277242),居住
B00155KQVE,辽源二村,打虎山路14弄,商务住宅;住宅区;住宅小区,120302,310000,上海市,21,上海市,310110,杨浦区,四平路,"121.512108,31.269871",[],商务住宅,住宅区,住宅小区,121.512108,31.269871,"121.507717,31.271909",121.507717,31.271909,POINT (121.507717 31.271909),居住
B00155KQV9,许昌路1265弄小区,许昌路1265弄之1-2号,商务住宅;住宅区;住宅小区,120302,310000,上海市,21,上海市,310110,杨浦区,四平路,"121.515735,31.267802",[],商务住宅,住宅区,住宅小区,121.515735,31.267802,"121.511357,31.269851",121.511357,31.269851,POINT (121.511357 31.269851),居住
B00155KQ53,才茂公寓,本溪路138弄1-6号,商务住宅;住宅区;住宅小区,120302,310000,上海市,21,上海市,310110,杨浦区,四平路,"121.516776,31.277668",[],商务住宅,住宅区,住宅小区,121.516776,31.277668,"121.512401,31.279716",121.512401,31.279716,POINT (121.512401 31.279716),居住
B00155KG8W,本溪路136弄小区,本溪路136弄1-4号,商务住宅;住宅区;住宅小区,120302,310000,上海市,21,上海市,310110,杨浦区,四平路,"121.517273,31.277067",[],商务住宅,住宅区,住宅小区,121.517273,31.277067,"121.5129,31.279117",121.5129,31.279117,POINT (121.5129 31.279117),居住
B00155KG8F,政本路350弄小区,政本路350弄,商务住宅;住宅区;住宅小区,120302,310000,上海市,21,上海市,310110,杨浦区,四平路,"121.515068,31.285197",[],商务住宅,住宅区,住宅小区,121.515068,31.285197,"121.510686,31.287237",121.510686,31.287237,POINT (121.510686 31.287237),居住
B00155KFSF,鞍山二村,打虎山路84弄1-2号,商务住宅;住宅区;住宅小区,120302,310000,上海市,21,上海市,310110,杨浦区,四平路,"121.508401,31.273018",[],商务住宅,住宅区,住宅小区,121.508401,31.273018,"121.503996,31.275043",121.503996,31.275043,POINT (121.503996 31.275043),居住
B00155KFM3,阜新路287弄小区,阜新路287弄,商务住宅;住宅区;住宅小区,120302,310000,上海市,21,上海市,310110,杨浦区,四平路,"121.508729,31.281204",[],商务住宅,住宅区,住宅小区,121.508729,31.281204,"121.504325,31.283227",121.504325,31.283227,POINT (121.504325 31.283227),居住
B00155KFM1,彰武大楼,彰武路72号,商务住宅;住宅区;住宅小区,120302,310000,上海市,21,上海市,310110,杨浦区,四平路,"121.509373,31.280966",[],商务住宅,住宅区,住宅小区,121.509373,31.280966,"121.504971,31.282991",121.504971,31.282991,POINT (121.504971 31.282991),居住
B00155KFDB,许昌路1469弄小区,许昌路1469弄之1-3号,商务住宅;住宅区;住宅小区,120302,310000,上海市,21,上海市,310110,杨浦区,四平路,"121.513552,31.270391",[],商务住宅,住宅区,住宅小区,121.513552,31.270391,"121.509166,31.272433",121.509166,31.272433,POINT (121.509166 31.272433),居住
B00155KF3L,辽源西路300弄小区,辽源西路300弄1-16号,商务住宅;住宅区;住宅小区,120302,310000,上海市,21,上海市,310110,杨浦区,四平路,"121.507292,31.2688",[],商务住宅,住宅区,住宅小区,121.507292,31.2688,"121.502884,31.270824",121.502884,31.270824,POINT (121.502884 31.270824),居住
B00155KF3H,辽源一村铁路小区,辽源西路与打虎山路交叉口西约140米,商务住宅;住宅区;住宅小区,120302,310000,上海市,21,上海市,310110,杨浦区,四平路,"121.509910,31.269093",[],商务住宅,住宅区,住宅小区,121.50991,31.269093,"121.505511,31.271124",121.505511,31.271124,POINT (121.505511 31.271124),居住
B00155KEZG,宝钢又一村北区,飞虹路656弄1-6号宝钢又一村,商务住宅;住宅区;住宅小区,120302,310000,上海市,21,上海市,310110,杨浦区,四平路,"121.511422,31.26686",[],商务住宅,住宅区,住宅小区,121.511422,31.26686,"121.507029,31.268897",121.507029,31.268897,POINT (121.507029 31.268897),居住
B00155KEBU,宝钢又一村,周家嘴路1683弄,商务住宅;商务住宅相关;商务住宅相关,120000,310000,上海市,21,上海市,310110,杨浦区,四平路,"121.51248,31.265921",[],商务住宅,商务住宅相关,商务住宅相关,121.51248,31.265921,"121.508091,31.267961",121.508091,31.267961,POINT (121.508091 31.267961),居住
B00155KCU2,大连西路4弄小区,大连西路4弄之4-5号,商务住宅;住宅区;住宅小区,120302,310000,上海市,21,上海市,310110,杨浦区,四平路,"121.500202,31.276102",[],商务住宅,住宅区,住宅小区,121.500202,31.276102,"121.495768,31.278101",121.495768,31.278101,POINT (121.495768 31.278101),居住
B00155IKQU,国权路85弄小区,国权路83附近,商务住宅;住宅区;住宅小区,120302,310000,上海市,21,上海市,310110,杨浦区,四平路,"121.517508,31.287583",[],商务住宅,住宅区,住宅小区,121.517508,31.287583,"121.513135,31.289629",121.513135,31.289629,POINT (121.513135 31.289629),居住
B00155I6AM,南茶园,国顺路81弄,商务住宅;住宅区;住宅小区,120302,310000,上海市,21,上海市,310110,杨浦区,四平路,"121.518204,31.290743",[],商务住宅,住宅区,住宅小区,121.518204,31.290743,"121.513833,31.29279",121.513833,31.29279,POINT (121.513833 31.29279),居住
B00155HWOF,昌大公寓,飞虹路648弄1-7号,商务住宅;住宅区;住宅小区,120302,310000,上海市,21,上海市,310110,杨浦区,四平路,"121.511009,31.266374",[],商务住宅,住宅区,住宅小区,121.511009,31.266374,"121.506614,31.26841",121.506614,31.26841,POINT (121.506614 31.26841),居住
B0FFHHSA55,杨浦科技创业中心,国定路335号上海高科技企业杨浦孵化基地7001、7007,商务住宅;楼宇;商务写字楼,120201,310000,上海市,21,上海市,310110,杨浦区,四平路,"121.508518,31.297191",[],商务住宅,楼宇,商务写字楼,121.508518,31.297191,"121.504112,31.299207",121.504112,31.299207,POINT (121.504112 31.299207),居住
B0FFGO4MN0,创客加同和凤凰栈,本溪路181号,商务住宅;楼宇;商务写字楼,120201,310000,上海市,21,上海市,310110,杨浦区,四平路,"121.514011,31.275452",021-65988266,商务住宅,楼宇,商务写字楼,121.514011,31.275452,"121.509626,31.277493",121.509626,31.277493,POINT (121.509626 31.277493),居住
B0FFL6E3FW,上药创智大厦,飞虹路与大连路交叉口东100米,商务住宅;楼宇;商务写字楼,120201,310000,上海市,21,上海市,310110,杨浦区,四平路,"121.508212,31.265038",[],商务住宅,楼宇,商务写字楼,121.508212,31.265038,"121.503807,31.267066",121.503807,31.267066,POINT (121.503807 31.267066),居住
B0FFJUZ96X,控江路1555号上海信息技术大厦,控江路1553-1555号,商务住宅;楼宇;商务写字楼,120201,310000,上海市,21,上海市,310110,杨浦区,四平路,"121.519136,31.274602",021-55610109,商务住宅,楼宇,商务写字楼,121.519136,31.274602,"121.514769,31.276658",121.514769,31.276658,POINT (121.514769 31.276658),居住
B0FFIMXE2N,写意创意中心,四平路1147弄2号1147创意中心,商务住宅;楼宇;商务写字楼|科教文化服务;培训机构;培训机构,120201|141400,310000,上海市,21,上海市,310110,杨浦区,四平路,"121.503910,31.278117",[],商务住宅,楼宇,商务写字楼|科教文化服务,121.50391,31.278117,"121.499489,31.280127",121.499489,31.280127,POINT (121.499489 31.280127),居住
B0FFH6L8PM,怡富商务广场,黄兴路1725号2006室,商务住宅;楼宇;商务写字楼,120201,310000,上海市,21,上海市,310110,杨浦区,四平路,"121.519113,31.29076",[],商务住宅,楼宇,商务写字楼,121.519113,31.29076,"121.514745,31.292809",121.514745,31.292809,POINT (121.514745 31.292809),居住
B0FFGTHP1Q,俱德商务,许昌路1296号近周家嘴路,商务住宅;楼宇;商务写字楼,120201,310000,上海市,21,上海市,310110,杨浦区,四平路,"121.516311,31.268037",[],商务住宅,楼宇,商务写字楼,121.516311,31.268037,"121.511935,31.270088",121.511935,31.270088,POINT (121.511935 31.270088),居住
B0FFG2XZNP,上海国际设计中心-西楼,国康路100号,商务住宅;楼宇;商务写字楼,120201,310000,上海市,21,上海市,310110,杨浦区,四平路,"121.501496,31.287017",021-65989888,商务住宅,楼宇,商务写字楼,121.501496,31.287017,"121.497065,31.289016",121.497065,31.289016,POINT (121.497065 31.289016),居住
B0FFFWVGNL,打虎大楼,控江路2023号,商务住宅;楼宇;商务写字楼,120201,310000,上海市,21,上海市,310110,杨浦区,四平路,"121.509397,31.272484",[],商务住宅,楼宇,商务写字楼,121.509397,31.272484,"121.504996,31.274512",121.504996,31.274512,POINT (121.504996 31.274512),居住
B0FFFFPRXI,同博大厦,政本路225、333号,商务住宅;楼宇;商务写字楼,120201,310000,上海市,21,上海市,310110,杨浦区,四平路,"121.514629,31.285622",[],商务住宅,楼宇,商务写字楼,121.514629,31.285622,"121.510246,31.28766",121.510246,31.28766,POINT (121.510246 31.28766),居住
B00157I1Q1,复华商业大厦,国顺路131弄10号楼,商务住宅;楼宇;商务写字楼,120201,310000,上海市,21,上海市,310110,杨浦区,四平路,"121.51505,31.2901",[],商务住宅,楼宇,商务写字楼,121.51505,31.2901,"121.510668,31.292138",121.510668,31.292138,POINT (121.510668 31.292138),居住
B0015745DE,贵人大厦,控江路2075号,商务住宅;楼宇;商务写字楼,120201,310000,上海市,21,上海市,310110,杨浦区,四平路,"121.507614,31.270835",021-55963097,商务住宅,楼宇,商务写字楼,121.507614,31.270835,"121.503207,31.272859",121.503207,31.272859,POINT (121.503207 31.272859),居住
B00156Z0C0,创业大厦2号楼,国定路335号,商务住宅;楼宇;商务写字楼,120201,310000,上海市,21,上海市,310110,杨浦区,四平路,"121.508691,31.297055",[],商务住宅,楼宇,商务写字楼,121.508691,31.297055,"121.504285,31.299071",121.504285,31.299071,POINT (121.504285 31.299071),居住
B00156O8TA,同济规划大厦,中山北二路1111号,商务住宅;楼宇;商务写字楼,120201,310000,上海市,21,上海市,310110,杨浦区,四平路,"121.505255,31.286522",[],商务住宅,楼宇,商务写字楼,121.505255,31.286522,"121.500838,31.288532",121.500838,31.288532,POINT (121.500838 31.288532),居住
B00156O0PP,五环大厦,控江路2061号,商务住宅;楼宇;商务写字楼,120201,310000,上海市,21,上海市,310110,杨浦区,四平路,"121.508456,31.27134",[],商务住宅,楼宇,商务写字楼,121.508456,31.27134,"121.504052,31.273366",121.504052,31.273366,POINT (121.504052 31.273366),居住
B00156NUQ3,市政设计大厦,国康路8号,商务住宅;楼宇;商务写字楼,120201,310000,上海市,21,上海市,310110,杨浦区,四平路,"121.506605,31.285774",[],商务住宅,楼宇,商务写字楼,121.506605,31.285774,"121.502193,31.287789",121.502193,31.287789,POINT (121.502193 31.287789),居住
B00156NUE7,智方大楼,国康路36号,商务住宅;楼宇;商务写字楼,120201,310000,上海市,21,上海市,310110,杨浦区,四平路,"121.505106,31.285976",[],商务住宅,楼宇,商务写字楼,121.505106,31.285976,"121.500688,31.287986",121.500688,31.287986,POINT (121.500688 31.287986),居住
B00156EI9U,财富国际,国权路39、49-51号,商务住宅;楼宇;商务写字楼,120201,310000,上海市,21,上海市,310110,杨浦区,四平路,"121.51874,31.287309",021-55096666,商务住宅,楼宇,商务写字楼,121.51874,31.287309,"121.514371,31.289359",121.514371,31.289359,POINT (121.514371 31.289359),居住
B00156EHV1,财富国际广场王座,"国权路39,49-51号",商务住宅;楼宇;商务写字楼,120201,310000,上海市,21,上海市,310110,杨浦区,四平路,"121.518453,31.288209",[],商务住宅,楼宇,商务写字楼,121.518453,31.288209,"121.514083,31.290257",121.514083,31.290257,POINT (121.514083 31.290257),居住
B00155KRJS,海上海新城商务楼9号楼,"大连路970号,990号",商务住宅;楼宇;商务写字楼,120201,310000,上海市,21,上海市,310110,杨浦区,四平路,"121.507213,31.266043",[],商务住宅,楼宇,商务写字楼,121.507213,31.266043,"121.502805,31.268068",121.502805,31.268068,POINT (121.502805 31.268068),居住
B00155KQVH,新纪元国际广场,黄兴路1599号,商务住宅;楼宇;商务写字楼,120201,310000,上海市,21,上海市,310110,杨浦区,四平路,"121.52096,31.286853",[],商务住宅,楼宇,商务写字楼,121.52096,31.286853,"121.516599,31.288909",121.516599,31.288909,POINT (121.516599 31.288909),居住
B00155KFG6,杨浦科技大厦,黄兴路2005弄1-2号,商务住宅;楼宇;商务写字楼,120201,310000,上海市,21,上海市,310110,杨浦区,四平路,"121.518,31.29363",[],商务住宅,楼宇,商务写字楼,121.518,31.29363,"121.513628,31.295675",121.513628,31.295675,POINT (121.513628 31.295675),居住
B00155BXVB,亚泰商务,国定路346号,商务住宅;楼宇;商务写字楼,120201,310000,上海市,21,上海市,310110,杨浦区,四平路,"121.509514,31.297332",[],商务住宅,楼宇,商务写字楼,121.509514,31.297332,"121.505111,31.299351",121.505111,31.299351,POINT (121.505111 31.299351),居住
B0015570OY,海上海新城商务楼8号楼,大连路950号,商务住宅;楼宇;商务写字楼,120201,310000,上海市,21,上海市,310110,杨浦区,四平路,"121.507573,31.265411",[],商务住宅,楼宇,商务写字楼,121.507573,31.265411,"121.503166,31.267437",121.503166,31.267437,POINT (121.503166 31.267437),居住
B001555MEH,富庆国定大厦,四平路2158号,商务住宅;楼宇;商务写字楼,120201,310000,上海市,21,上海市,310110,杨浦区,四平路,"121.513596,31.294632",[],商务住宅,楼宇,商务写字楼,121.513596,31.294632,"121.509208,31.296664",121.509208,31.296664,POINT (121.509208 31.296664),居住
B0015353B0,三峰大厦,许昌路1600号,商务住宅;楼宇;商务写字楼,120201,310000,上海市,21,上海市,310110,杨浦区,四平路,"121.512697,31.273151",[],商务住宅,楼宇,商务写字楼,121.512697,31.273151,"121.508308,31.275189",121.508308,31.275189,POINT (121.508308 31.275189),居住
B00150C555,金岛大厦,四平路2500号,商务住宅;楼宇;商务写字楼,120201,310000,上海市,21,上海市,310110,杨浦区,四平路,"121.515912,31.298282",[],商务住宅,楼宇,商务写字楼,121.515912,31.298282,"121.511532,31.300319",121.511532,31.300319,POINT (121.511532 31.300319),居住
B0HBG7FJM1,君欣时代广场商务楼,控江路1717号,商务住宅;楼宇;楼宇相关,120200,310000,上海市,21,上海市,310110,杨浦区,四平路,"121.515003,31.273623",[],商务住宅,楼宇,楼宇相关,121.515003,31.273623,"121.510622,31.275667",121.510622,31.275667,POINT (121.510622 31.275667),居住
B0FFL068JS,创投中心,四平路辅路与国泰路交叉口西南约60米,商务住宅;楼宇;商务写字楼,120201,310000,上海市,21,上海市,310110,杨浦区,四平路,"121.508707,31.287683",[],商务住宅,楼宇,商务写字楼,121.508707,31.287683,"121.504302,31.289703",121.504302,31.289703,POINT (121.504302 31.289703),居住
B0FFGYVTDE,国中大厦,大连路1546号,商务住宅;楼宇;商务写字楼,120201,310000,上海市,21,上海市,310110,杨浦区,四平路,"121.504506,31.272882",[],商务住宅,楼宇,商务写字楼,121.504506,31.272882,"121.500087,31.274896",121.500087,31.274896,POINT (121.500087 31.274896),居住
B0FFGSWCJQ,铁岭大楼,铁岭路与抚顺路交叉口东南约60米,商务住宅;楼宇;商务写字楼,120201,310000,上海市,21,上海市,310110,杨浦区,四平路,"121.513610,31.279014",[],商务住宅,楼宇,商务写字楼,121.51361,31.279014,"121.509224,31.281052",121.509224,31.281052,POINT (121.509224 31.281052),居住
B0FFG9582E,绿色米兰广场王座B座,国权路51号,商务住宅;楼宇;商务写字楼,120201,310000,上海市,21,上海市,310110,杨浦区,四平路,"121.518752,31.288294",[],商务住宅,楼宇,商务写字楼,121.518752,31.288294,"121.514383,31.290343",121.514383,31.290343,POINT (121.514383 31.290343),居住
B0FFG31BHE,上海国际设计中心南楼,国康路96号上海国际设计中心南楼,商务住宅;楼宇;商务写字楼,120201,310000,上海市,21,上海市,310110,杨浦区,四平路,"121.502229,31.286829",[],商务住宅,楼宇,商务写字楼,121.502229,31.286829,"121.497801,31.28883",121.497801,31.28883,POINT (121.497801 31.28883),居住
B0FFG1LQN1,上海国际设计中心北楼,国康路96号上海国际设计中心北楼,商务住宅;楼宇;商务写字楼,120201,310000,上海市,21,上海市,310110,杨浦区,四平路,"121.502357,31.287024",[],商务住宅,楼宇,商务写字楼,121.502357,31.287024,"121.497929,31.289025",121.497929,31.289025,POINT (121.497929 31.289025),居住
B0FFG1BVU3,上海国际设计中心-东楼,国康路98号上海国际设计中心东楼,商务住宅;楼宇;商务写字楼,120201,310000,上海市,21,上海市,310110,杨浦区,四平路,"121.501959,31.287017",[],商务住宅,楼宇,商务写字楼,121.501959,31.287017,"121.49753,31.289017",121.49753,31.289017,POINT (121.49753 31.289017),居住
B00154DV53,五环大厦西座,控江路2063号五环大厦,商务住宅;楼宇;商务写字楼,120201,310000,上海市,21,上海市,310110,杨浦区,四平路,"121.508209,31.271446",[],商务住宅,楼宇,商务写字楼,121.508209,31.271446,"121.503804,31.273471",121.503804,31.273471,POINT (121.503804 31.273471),居住
B00155L2QP,复旦大学第十宿舍,政肃路45弄,商务住宅;住宅区;宿舍,120303,310000,上海市,21,上海市,310110,杨浦区,四平路,"121.507371,31.294551",[],商务住宅,住宅区,宿舍,121.507371,31.294551,"121.502961,31.296564",121.502961,31.296564,POINT (121.502961 31.296564),居住
B00155L2OM,复旦大学第五宿舍,邯郸路220号复旦大学邯郸校区,商务住宅;住宅区;宿舍,120303,310000,上海市,21,上海市,310110,杨浦区,四平路,"121.506697,31.293414",[],商务住宅,住宅区,宿舍,121.506697,31.293414,"121.502285,31.295426",121.502285,31.295426,POINT (121.502285 31.295426),居住
B00155L2QQ,复旦大学第九宿舍,邯郸路220号复旦大学邯郸校区,商务住宅;住宅区;宿舍,120303,310000,上海市,21,上海市,310110,杨浦区,四平路,"121.506462,31.296029",[],商务住宅,住宅区,宿舍,121.506462,31.296029,"121.502049,31.298039",121.502049,31.298039,POINT (121.502049 31.298039),居住
B00155L2OL,复旦大学第二宿舍,邯郸路220号复旦大学邯郸校区,商务住宅;住宅区;宿舍,120303,310000,上海市,21,上海市,310110,杨浦区,四平路,"121.506828,31.292331",[],商务住宅,住宅区,宿舍,121.506828,31.292331,"121.502416,31.294344",121.502416,31.294344,POINT (121.502416 31.294344),居住
B00155L2OJ,复旦大学第一宿舍,国年路102弄,商务住宅;住宅区;宿舍,120303,310000,上海市,21,上海市,310110,杨浦区,四平路,"121.507725,31.29293",[],商务住宅,住宅区,宿舍,121.507725,31.29293,"121.503316,31.294945",121.503316,31.294945,POINT (121.503316 31.294945),居住
B00155L2RD,复旦大学第十二宿舍,邯郸路220号复旦大学邯郸校区,商务住宅;住宅区;宿舍,120303,310000,上海市,21,上海市,310110,杨浦区,四平路,"121.508416,31.29478",[],商务住宅,住宅区,宿舍,121.508416,31.29478,"121.50401,31.296796",121.50401,31.296796,POINT (121.50401 31.296796),居住
B00153D192,复旦大学第二宿舍(东北门),国年路101弄,商务住宅;住宅区;宿舍,120303,310000,上海市,21,上海市,310110,杨浦区,四平路,"121.506974,31.29268",[],商务住宅,住宅区,宿舍,121.506974,31.29268,"121.502563,31.294693",121.502563,31.294693,POINT (121.502563 31.294693),居住
B00155L2RL,复旦第七宿舍,邯郸路220号复旦大学邯郸校区,商务住宅;住宅区;宿舍,120303,310000,上海市,21,上海市,310110,杨浦区,四平路,"121.504555,31.293676",[],商务住宅,住宅区,宿舍,121.504555,31.293676,"121.500135,31.295681",121.500135,31.295681,POINT (121.500135 31.295681),居住
B00155L2OI,复旦大学第三宿舍,邯郸路220号复旦大学邯郸校区,商务住宅;住宅区;宿舍,120303,310000,上海市,21,上海市,310110,杨浦区,四平路,"121.506392,31.292853",[],商务住宅,住宅区,宿舍,121.506392,31.292853,"121.501979,31.294864",121.501979,31.294864,POINT (121.501979 31.294864),居住
B00155HHY4,上海市五角场高新技术产业园区,黄兴路2005弄之1-2号杨浦科技大厦,商务住宅;产业园区;产业园区,120100,310000,上海市,21,上海市,310110,杨浦区,四平路,"121.518001,31.293619",[],商务住宅,产业园区,产业园区,121.518001,31.293619,"121.513629,31.295664",121.513629,31.295664,POINT (121.513629 31.295664),居住
B0FFJ3JRFE,诚屹创业园区,江浦路2117号,商务住宅;产业园区;产业园区,120100,310000,上海市,21,上海市,310110,杨浦区,四平路,"121.516043,31.282207",[],商务住宅,产业园区,产业园区,121.516043,31.282207,"121.511665,31.284251",121.511665,31.284251,POINT (121.511665 31.284251),居住
B0FFHO29PX,同济大学-科技园,赤峰路65号,商务住宅;产业园区;产业园区,120100,310000,上海市,21,上海市,310110,杨浦区,四平路,"121.500407,31.280219",[],商务住宅,产业园区,产业园区,121.500407,31.280219,"121.495973,31.282217",121.495973,31.282217,POINT (121.495973 31.282217),居住
B0FFGTM6DN,杨浦·复旦科技园科创创新中心,四平路1779号,商务住宅;产业园区;产业园区,120100,310000,上海市,21,上海市,310110,杨浦区,四平路,"121.508750,31.287888",[],商务住宅,产业园区,产业园区,121.50875,31.287888,"121.504345,31.289908",121.504345,31.289908,POINT (121.504345 31.289908),居住
B0FFF3IWMT,智慧树创业产业园,江浦路1500号,商务住宅;产业园区;产业园区,120100,310000,上海市,21,上海市,310110,杨浦区,四平路,"121.51951,31.274067",[],商务住宅,产业园区,产业园区,121.51951,31.274067,"121.515145,31.276124",121.515145,31.276124,POINT (121.515145 31.276124),居住
B00155KFF8,上海市五角场高新技术产业园(铁岭路),铁岭路32号同叶大厦,商务住宅;产业园区;产业园区,120100,310000,上海市,21,上海市,310110,杨浦区,四平路,"121.514598,31.278192",[],商务住宅,产业园区,产业园区,121.514598,31.278192,"121.510215,31.280233",121.510215,31.280233,POINT (121.510215 31.280233),居住
B0FFF3AQMM,杨浦区大学生(青年)创业园江浦路街道创业孵化基地,许昌路1485号,商务住宅;产业园区;产业园区,120100,310000,上海市,21,上海市,310110,杨浦区,四平路,"121.512624,31.271307",[],商务住宅,产业园区,产业园区,121.512624,31.271307,"121.508235,31.273345",121.508235,31.273345,POINT (121.508235 31.273345),居住
B0HD6RAHVT,智慧树创意产业园,江浦路辅路与江浦路交叉口东北约80米,商务住宅;产业园区;产业园区,120100,310000,上海市,21,上海市,310110,杨浦区,四平路,"121.519478,31.274097",[],商务住宅,产业园区,产业园区,121.519478,31.274097,"121.515113,31.276154",121.515113,31.276154,POINT (121.515113 31.276154),居住
B0FFHQFFM3,上海3310科技园,,商务住宅;产业园区;产业园区,120100,310000,上海市,21,上海市,310110,杨浦区,四平路,"121.502402,31.289217",[],商务住宅,产业园区,产业园区,121.502402,31.289217,"121.497974,31.291218",121.497974,31.291218,POINT (121.497974 31.291218),居住
B00156LTM3,同济大学-博士生公寓,四平路1251号同济大学,商务住宅;住宅区;宿舍,120303,310000,上海市,21,上海市,310110,杨浦区,四平路,"121.496440,31.282741",[],商务住宅,住宅区,宿舍,121.49644,31.282741,"121.491991,31.284726",121.491991,31.284726,POINT (121.491991 31.284726),居住
B00156YL55,复旦大学附属中学宿舍,邯郸路220号复旦大学邯郸校区,商务住宅;住宅区;宿舍,120303,310000,上海市,21,上海市,310110,杨浦区,四平路,"121.506396,31.291827",[],商务住宅,住宅区,宿舍,121.506396,31.291827,"121.501983,31.293838",121.501983,31.293838,POINT (121.501983 31.293838),居住
B0FFL4PLEW,同济大学铁岭宿舍,锦西路与铁岭路交叉口东南方向130米,商务住宅;住宅区;宿舍,120303,310000,上海市,21,上海市,310110,杨浦区,四平路,"121.515644,31.277819",[],商务住宅,住宅区,宿舍,121.515644,31.277819,"121.511265,31.279864",121.511265,31.279864,POINT (121.511265 31.279864),居住
B0FFJ3QWMC,同济大学创业谷,四平路校区,商务住宅;商务住宅相关;商务住宅相关,120000,310000,上海市,21,上海市,310110,杨浦区,四平路,"121.504783,31.281662",[],商务住宅,商务住宅相关,商务住宅相关,121.504783,31.281662,"121.500365,31.283673",121.500365,31.283673,POINT (121.500365 31.283673),居住
B0FFFE4XOA,同济大学四平路校区育才会务有限公司干训楼住宿部,赤峰路67号,商务住宅;住宅区;宿舍,120303,310000,上海市,21,上海市,310110,杨浦区,四平路,"121.499852,31.279401",[],商务住宅,住宅区,宿舍,121.499852,31.279401,"121.495416,31.281398",121.495416,31.281398,POINT (121.495416 31.281398),居住
B00155KCXK,同济大学国家大学科技园(国康路),国康路46弄之1-4号,商务住宅;产业园区;产业园区,120100,310000,上海市,21,上海市,310110,杨浦区,四平路,"121.501849,31.286806",[],商务住宅,产业园区,产业园区,121.501849,31.286806,"121.49742,31.288806",121.49742,31.288806,POINT (121.49742 31.288806),居住
B0G1TXVHIG,信息苑,本溪路与鞍山路交叉口西约40米,商务住宅;住宅区;住宅小区,120302,310000,上海市,21,上海市,310110,杨浦区,四平路,"121.512529,31.275039",[],商务住宅,住宅区,住宅小区,121.512529,31.275039,"121.508139,31.277076",121.508139,31.277076,POINT (121.508139 31.277076),居住
B0FFG42F22,密云路528弄3号楼,四平路1239号,商务住宅;住宅区;住宅区,120300,310000,上海市,21,上海市,310110,杨浦区,四平路,"121.496416,31.282779",[],商务住宅,住宅区,住宅区,121.496416,31.282779,"121.491967,31.284764",121.491967,31.284764,POINT (121.491967 31.284764),居住
B0FFIXS33P,四平路1382弄153号,四平街道彰武路同济新村758号同济小学附近,商务住宅;商务住宅相关;商务住宅相关,120000,310000,上海市,21,上海市,310110,杨浦区,四平路,"121.508973,31.284270",[],商务住宅,商务住宅相关,商务住宅相关,121.508973,31.28427,"121.50457,31.286292",121.50457,31.286292,POINT (121.50457 31.286292),居住
B0FFFS526I,新华医院女生宿舍楼,控江路1665号,商务住宅;住宅区;宿舍,120303,310000,上海市,21,上海市,310110,杨浦区,四平路,"121.516637,31.273008",[],商务住宅,住宅区,宿舍,121.516637,31.273008,"121.512262,31.275057",121.512262,31.275057,POINT (121.512262 31.275057),居住
B00155FPIL,凤城二村(二小区),控江路,商务住宅;商务住宅相关;商务住宅相关,120000,310000,上海市,21,上海市,310110,杨浦区,四平路,"121.518553,31.277385",[],商务住宅,商务住宅相关,商务住宅相关,121.518553,31.277385,"121.514184,31.279438",121.514184,31.279438,POINT (121.514184 31.279438),居住
B0FFH0ZRCQ,163街坊,许昌路1600号三峰大厦,商务住宅;商务住宅相关;商务住宅相关,120000,310000,上海市,21,上海市,310110,杨浦区,四平路,"121.512434,31.273100",[],商务住宅,商务住宅相关,商务住宅相关,121.512434,31.2731,"121.508044,31.275137",121.508044,31.275137,POINT (121.508044 31.275137),居住
B0FFIXRA3Z,四平路1382弄302号,中山北二路758号附近,商务住宅;商务住宅相关;商务住宅相关,120000,310000,上海市,21,上海市,310110,杨浦区,四平路,"121.509712,31.284633",[],商务住宅,商务住宅相关,商务住宅相关,121.509712,31.284633,"121.505311,31.286657",121.505311,31.286657,POINT (121.505311 31.286657),居住
B0FFG8H26M,新起点员工公寓(国权路),国权路29号3层,商务住宅;住宅区;宿舍,120303,310000,上海市,21,上海市,310110,杨浦区,四平路,"121.519332,31.288717",18321242951,商务住宅,住宅区,宿舍,121.519332,31.288717,"121.514965,31.290768",121.514965,31.290768,POINT (121.514965 31.290768),居住
B0FFH5J9VH,同济大学四平路校区西北一楼,内环高架路与辉河路交叉口东南200米,商务住宅;住宅区;宿舍,120303,310000,上海市,21,上海市,310110,杨浦区,四平路,"121.500273,31.285646",[],商务住宅,住宅区,宿舍,121.500273,31.285646,"121.495838,31.287642",121.495838,31.287642,POINT (121.495838 31.287642),居住
B00156LTM5,同济大学四平路校区西南二楼,四平路1239号,商务住宅;住宅区;宿舍,120303,310000,上海市,21,上海市,310110,杨浦区,四平路,"121.500784,31.282311",[],商务住宅,住宅区,宿舍,121.500784,31.282311,"121.496351,31.28431",121.496351,31.28431,POINT (121.496351 31.28431),居住
B0GRAS3JRJ,保利天汇(建设中),辽源西路169弄,商务住宅;住宅区;住宅小区,120302,310000,上海市,21,上海市,310110,杨浦区,四平路,"121.510427,31.267522",021-20989998,商务住宅,住宅区,住宅小区,121.510427,31.267522,"121.50603,31.269556",121.50603,31.269556,POINT (121.50603 31.269556),居住
B0FFG3WEKV,国年路135弄2号,邯郸路220号复旦大学邯郸校区,商务住宅;住宅区;宿舍,120303,310000,上海市,21,上海市,310110,杨浦区,四平路,"121.506321,31.292884",[],商务住宅,住宅区,宿舍,121.506321,31.292884,"121.501907,31.294895",121.501907,31.294895,POINT (121.501907 31.294895),居住
B0FFFR725C,辽源西路71弄21,辽源西路101-13号附近,商务住宅;住宅区;住宅区,120300,310000,上海市,21,上海市,310110,杨浦区,四平路,"121.513338,31.268304",[],商务住宅,住宅区,住宅区,121.513338,31.268304,"121.508951,31.270346",121.508951,31.270346,POINT (121.508951 31.270346),居住
B00156Z1MM,同济大学四平路校区西北四楼,中山北二路与辉河路交叉口东南80米,商务住宅;住宅区;宿舍|科教文化服务;学校;学校,120303|141200,310000,上海市,21,上海市,310110,杨浦区,四平路,"121.499869,31.286460",[],商务住宅,住宅区,宿舍|科教文化服务,121.499869,31.28646,"121.495433,31.288454",121.495433,31.288454,POINT (121.495433 31.288454),居住
B0FFGBBVV1,国权路320弄300弄小区,国权路与政化路交叉口西北120米,商务住宅;住宅区;住宅小区,120302,310000,上海市,21,上海市,310110,杨浦区,四平路,"121.508571,31.290770",[],商务住宅,住宅区,住宅小区,121.508571,31.29077,"121.504166,31.292788",121.504166,31.292788,POINT (121.504166 31.292788),居住
B0FFIXQPRA,国定路18号,国定路与政本路交叉口西北100米,商务住宅;住宅区;住宅区,120300,310000,上海市,21,上海市,310110,杨浦区,四平路,"121.514938,31.294314",[],商务住宅,住宅区,住宅区,121.514938,31.294314,"121.510555,31.29635",121.510555,31.29635,POINT (121.510555 31.29635),居住
B00156YL77,同济大学四平路校区博士生公寓3号楼,四平路1239号同济大学四平路校区,商务住宅;住宅区;宿舍,120303,310000,上海市,21,上海市,310110,杨浦区,四平路,"121.496412,31.282746",[],商务住宅,住宅区,宿舍,121.496412,31.282746,"121.491963,31.284731",121.491963,31.284731,POINT (121.491963 31.284731),居住
B0FFG5A3HW,同济大学四平路校区后勤公寓,四平路1239号同济大学四平路校区,商务住宅;住宅区;宿舍,120303,310000,上海市,21,上海市,310110,杨浦区,四平路,"121.500673,31.286823",[],商务住宅,住宅区,宿舍,121.500673,31.286823,"121.496239,31.288819",121.496239,31.288819,POINT (121.496239 31.288819),居住
B0FFG3W3VG,政肃路95弄40号,邯郸路220号复旦大学邯郸校区,商务住宅;住宅区;宿舍,120303,310000,上海市,21,上海市,310110,杨浦区,四平路,"121.505876,31.293750",[],商务住宅,住宅区,宿舍,121.505876,31.29375,"121.501461,31.295759",121.501461,31.295759,POINT (121.501461 31.295759),居住
B0FFIXR98F,四平路1382弄349号,同五北路与济三路交叉口西100米,商务住宅;商务住宅相关;商务住宅相关,120000,310000,上海市,21,上海市,310110,杨浦区,四平路,"121.511109,31.282695",[],商务住宅,商务住宅相关,商务住宅相关,121.511109,31.282695,"121.506713,31.284724",121.506713,31.284724,POINT (121.506713 31.284724),居住
B0FFIXRUO3,四平路1382弄498号,四平路同济新村,商务住宅;商务住宅相关;商务住宅相关,120000,310000,上海市,21,上海市,310110,杨浦区,四平路,"121.508694,31.285066",[],商务住宅,商务住宅相关,商务住宅相关,121.508694,31.285066,"121.504289,31.287087",121.504289,31.287087,POINT (121.504289 31.287087),居住
B0FFIXRRYU,四平路1382弄571号,同三北路与同三路交叉口东100米,商务住宅;商务住宅相关;商务住宅相关,120000,310000,上海市,21,上海市,310110,杨浦区,四平路,"121.511413,31.284076",[],商务住宅,商务住宅相关,商务住宅相关,121.511413,31.284076,"121.507018,31.286106",121.507018,31.286106,POINT (121.507018 31.286106),居住
B0FFG75KBO,延吉西路80弄小区,延吉西路与凤城路交叉口西北120米,商务住宅;住宅区;住宅小区,120302,310000,上海市,21,上海市,310110,杨浦区,四平路,"121.521430,31.281403",[],商务住宅,住宅区,住宅小区,121.52143,31.281403,"121.517071,31.283463",121.517071,31.283463,POINT (121.517071 31.283463),居住
B0FFIXQIGE,国定路277弄12号,四平路2043号附近,商务住宅;商务住宅相关;商务住宅相关,120000,310000,上海市,21,上海市,310110,杨浦区,四平路,"121.510657,31.294915",[],商务住宅,商务住宅相关,商务住宅相关,121.510657,31.294915,"121.506259,31.296938",121.506259,31.296938,POINT (121.506259 31.296938),居住
B0FFIXPZOD,江浦路2089弄1号,恒联新天地花园(江浦路西),商务住宅;商务住宅相关;商务住宅相关,120000,310000,上海市,21,上海市,310110,杨浦区,四平路,"121.516306,31.281584",[],商务住宅,商务住宅相关,商务住宅相关,121.516306,31.281584,"121.511929,31.283629",121.511929,31.283629,POINT (121.511929 31.283629),居住
B0FFGXSZWP,同济大学西南十楼B楼,玉田路与密云路交叉口东360米,商务住宅;住宅区;住宅区,120300,310000,上海市,21,上海市,310110,杨浦区,四平路,"121.500190,31.279448",[],商务住宅,住宅区,住宅区,121.50019,31.279448,"121.495755,31.281446",121.495755,31.281446,POINT (121.495755 31.281446),居住
B0FFH1YLW1,大连路公房,大连路1542号,商务住宅;住宅区;住宅小区,120302,310000,上海市,21,上海市,310110,杨浦区,四平路,"121.504382,31.272580",[],商务住宅,住宅区,住宅小区,121.504382,31.27258,"121.499963,31.274593",121.499963,31.274593,POINT (121.499963 31.274593),居住
B001525314,江升公寓,长浜路330弄,商务住宅;住宅区;住宅小区,120302,310000,上海市,21,上海市,310110,杨浦区,四平路,"121.521477,31.273044",[],商务住宅,住宅区,住宅小区,121.521477,31.273044,"121.517118,31.275107",121.517118,31.275107,POINT (121.517118 31.275107),居住
B0FFG3WIYH,政肃路45弄8号楼,邯郸路220号复旦大学,商务住宅;住宅区;宿舍,120303,310000,上海市,21,上海市,310110,杨浦区,四平路,"121.507826,31.294389",[],商务住宅,住宅区,宿舍,121.507826,31.294389,"121.503418,31.296404",121.503418,31.296404,POINT (121.503418 31.296404),居住
B0FFIY34EI,四平路1382弄569号,中山北二路768号附近,商务住宅;商务住宅相关;商务住宅相关,120000,310000,上海市,21,上海市,310110,杨浦区,四平路,"121.511215,31.284672",[],商务住宅,商务住宅相关,商务住宅相关,121.511215,31.284672,"121.50682,31.286701",121.50682,31.286701,POINT (121.50682 31.286701),居住
B0FFIXR02Y,四平路1382弄589号,同济新村580号附近,商务住宅;商务住宅相关;商务住宅相关,120000,310000,上海市,21,上海市,310110,杨浦区,四平路,"121.511665,31.283386",[],商务住宅,商务住宅相关,商务住宅相关,121.511665,31.283386,"121.507271,31.285417",121.507271,31.285417,POINT (121.507271 31.285417),居住
B0FFFPV5P1,国顺路650弄76号,邯郸路220号复旦大学邯郸校区,商务住宅;住宅区;宿舍,120303,310000,上海市,21,上海市,310110,杨浦区,四平路,"121.506704,31.295210",[],商务住宅,住宅区,宿舍,121.506704,31.29521,"121.502291,31.297221",121.502291,31.297221,POINT (121.502291 31.297221),居住
B0FFIXQC74,四平路1382弄563号,中山北二路762号附近,商务住宅;商务住宅相关;商务住宅相关,120000,310000,上海市,21,上海市,310110,杨浦区,四平路,"121.510873,31.284545",[],商务住宅,商务住宅相关,商务住宅相关,121.510873,31.284545,"121.506476,31.286573",121.506476,31.286573,POINT (121.506476 31.286573),居住
B0FFG7CO0J,同济大学四平路校区南区西南十一楼,赤峰路南150米,商务住宅;住宅区;宿舍,120303,310000,上海市,21,上海市,310110,杨浦区,四平路,"121.499885,31.279391",[],商务住宅,住宅区,宿舍,121.499885,31.279391,"121.495449,31.281388",121.495449,31.281388,POINT (121.495449 31.281388),居住
B00155KV6W,上海工具厂宿舍,辽源西路118号,商务住宅;住宅区;宿舍,120303,310000,上海市,21,上海市,310110,杨浦区,四平路,"121.511614,31.268785",[],商务住宅,住宅区,宿舍,121.511614,31.268785,"121.507221,31.270822",121.507221,31.270822,POINT (121.507221 31.270822),居住
B0FFH5J903,同济大学四平路校区西南楼,密云路与中山北二路交叉口东南280米,商务住宅;住宅区;宿舍,120303,310000,上海市,21,上海市,310110,杨浦区,四平路,"121.499171,31.283840",[],商务住宅,住宅区,宿舍,121.499171,31.28384,"121.494732,31.285833",121.494732,31.285833,POINT (121.494732 31.285833),居住
B0FFILDEOC,海珍阁,飞虹路附近,商务住宅;商务住宅相关;商务住宅相关,120000,310000,上海市,21,上海市,310110,杨浦区,四平路,"121.509631,31.266357",[],商务住宅,商务住宅相关,商务住宅相关,121.509631,31.266357,"121.505231,31.268389",121.505231,31.268389,POINT (121.505231 31.268389),居住
B00153E57D,上海赤峰冶金公寓,赤峰路95-97号,商务住宅;住宅区;住宅小区,120302,310000,上海市,21,上海市,310110,杨浦区,四平路,"121.496661,31.281557",[],商务住宅,住宅区,住宅小区,121.496661,31.281557,"121.492213,31.283543",121.492213,31.283543,POINT (121.492213 31.283543),居住
B00156Z14N,同济大学四平路校区西南八楼,四平路1239同济大学附近,商务住宅;住宅区;宿舍|科教文化服务;学校;学校,120303|141200,310000,上海市,21,上海市,310110,杨浦区,四平路,"121.499670,31.282162",[],商务住宅,住宅区,宿舍|科教文化服务,121.49967,31.282162,"121.495233,31.284157",121.495233,31.284157,POINT (121.495233 31.284157),居住
B0FFH89U2V,Linckia海星客同济社区,四平路辅路与彰武路交叉口南180米,商务住宅;住宅区;住宅小区,120302,310000,上海市,21,上海市,310110,杨浦区,四平路,"121.506118,31.280795",[],商务住宅,住宅区,住宅小区,121.506118,31.280795,"121.501705,31.28281",121.501705,31.28281,POINT (121.501705 31.28281),居住
B0FFIXRITT,双辽支路45弄19号,双辽支路45弄1-25号张家浜小区(双辽支路)附近,商务住宅;商务住宅相关;商务住宅相关,120000,310000,上海市,21,上海市,310110,杨浦区,四平路,"121.517200,31.269371",[],商务住宅,商务住宅相关,商务住宅相关,121.5172,31.269371,"121.512827,31.271424",121.512827,31.271424,POINT (121.512827 31.271424),居住
B0FFIXQO94,四平路1382弄66号,四平路1251号附近,商务住宅;商务住宅相关;商务住宅相关,120000,310000,上海市,21,上海市,310110,杨浦区,四平路,"121.508154,31.284231",[],商务住宅,商务住宅相关,商务住宅相关,121.508154,31.284231,"121.503748,31.286251",121.503748,31.286251,POINT (121.503748 31.286251),居住
B0FFK2YGT8,密云小区东区密云路444弄,密云路444弄,商务住宅;住宅区;住宅小区,120302,310000,上海市,21,上海市,310110,杨浦区,四平路,"121.496867,31.278469",[],商务住宅,住宅区,住宅小区,121.496867,31.278469,"121.49242,31.280457",121.49242,31.280457,POINT (121.49242 31.280457),居住
B0FFFWQ3LB,飞虹路公房,飞虹路755弄路2号,商务住宅;住宅区;住宅小区,120302,310000,上海市,21,上海市,310110,杨浦区,四平路,"121.513819,31.267393",[],商务住宅,住宅区,住宅小区,121.513819,31.267393,"121.509434,31.269437",121.509434,31.269437,POINT (121.509434 31.269437),居住
B0FFJ48EP3,苏宁财富中心,邯郸路585号1F,商务住宅;商务住宅相关;商务住宅相关,120000,310000,上海市,21,上海市,310110,杨浦区,四平路,"121.514569,31.298872",[],商务住宅,商务住宅相关,商务住宅相关,121.514569,31.298872,"121.510184,31.300905",121.510184,31.300905,POINT (121.510184 31.300905),居住
B0FFHE9IRY,同济大学彰武路校区学生公寓6号楼,彰武路100号,商务住宅;住宅区;宿舍,120303,310000,上海市,21,上海市,310110,杨浦区,四平路,"121.513287,31.281380",[],商务住宅,住宅区,宿舍,121.513287,31.28138,"121.508899,31.283416",121.508899,31.283416,POINT (121.508899 31.283416),居住
B0FFIXRK7W,国顺路三九五弄16号,国顺路三九五弄16号楼,商务住宅;商务住宅相关;商务住宅相关,120000,310000,上海市,21,上海市,310110,杨浦区,四平路,"121.508811,31.292224",[],商务住宅,商务住宅相关,商务住宅相关,121.508811,31.292224,"121.504406,31.294243",121.504406,31.294243,POINT (121.504406 31.294243),居住
B0FFFVK2UK,大连西路公房,大连西路与天宝路交叉口西北60米,商务住宅;住宅区;住宅小区,120302,310000,上海市,21,上海市,310110,杨浦区,四平路,"121.498447,31.276505",[],商务住宅,住宅区,住宅小区,121.498447,31.276505,"121.494006,31.278499",121.494006,31.278499,POINT (121.494006 31.278499),居住
B0FFIKAFCD,大连路854弄9号,飞虹路附近,商务住宅;住宅区;住宅区,120300,310000,上海市,21,上海市,310110,杨浦区,四平路,"121.508238,31.264365",[],商务住宅,住宅区,住宅区,121.508238,31.264365,"121.503834,31.266393",121.503834,31.266393,POINT (121.503834 31.266393),居住
B0FFIXS1GX,双辽路200弄5号,双辽路200弄1-10号双辽路200弄小区附近,商务住宅;商务住宅相关;商务住宅相关,120000,310000,上海市,21,上海市,310110,杨浦区,四平路,"121.517292,31.272788",[],商务住宅,商务住宅相关,商务住宅相关,121.517292,31.272788,"121.512919,31.274839",121.512919,31.274839,POINT (121.512919 31.274839),居住
B0FFL8OHLD,艾尔花园,国泰路与四平路辅路交叉口西120米,商务住宅;商务住宅相关;商务住宅相关,120000,310000,上海市,21,上海市,310110,杨浦区,四平路,"121.507861,31.287885",15618686326,商务住宅,商务住宅相关,商务住宅相关,121.507861,31.287885,"121.503453,31.289902",121.503453,31.289902,POINT (121.503453 31.289902),居住
B0FFG7CPJR,和平花苑1期,控江路2222号,商务住宅;商务住宅相关;商务住宅相关,120000,310000,上海市,21,上海市,310110,杨浦区,四平路,"121.507000,31.271140",[],商务住宅,商务住宅相关,商务住宅相关,121.507,31.27114,"121.502591,31.273162",121.502591,31.273162,POINT (121.502591 31.273162),居住
B0FFG3WGS3,黄兴路1063号,延吉西路与黄兴路交叉口西40米,商务住宅;商务住宅相关;商务住宅相关,120000,310000,上海市,21,上海市,310110,杨浦区,四平路,"121.523658,31.281189",[],商务住宅,商务住宅相关,商务住宅相关,121.523658,31.281189,"121.519306,31.283255",121.519306,31.283255,POINT (121.519306 31.283255),居住
B00154A1C3,愚慧阁,赤峰路89弄1号,商务住宅;住宅区;住宅小区,120302,310000,上海市,21,上海市,310110,杨浦区,四平路,"121.498347,31.280939",021-65528918,商务住宅,住宅区,住宅小区,121.498347,31.280939,"121.493905,31.282931",121.493905,31.282931,POINT (121.493905 31.282931),居住
B00155KB6L,伊顿公寓,四平路1147弄之1-9号,商务住宅;住宅区;住宅小区,120302,310000,上海市,21,上海市,310110,杨浦区,四平路,"121.503476,31.27821",[],商务住宅,住宅区,住宅小区,121.503476,31.27821,"121.499053,31.280218",121.499053,31.280218,POINT (121.499053 31.280218),居住
B0FFHWUEIC,大运盛城3期,中山北二路与长岭路交叉口东100米,商务住宅;商务住宅相关;商务住宅相关,120000,310000,上海市,21,上海市,310110,杨浦区,四平路,"121.519320,31.284920",[],商务住宅,商务住宅相关,商务住宅相关,121.51932,31.28492,"121.514953,31.286972",121.514953,31.286972,POINT (121.514953 31.286972),居住
B0FFIXR2IK,四平路1382弄306号,中山北二路758号附近,商务住宅;商务住宅相关;商务住宅相关,120000,310000,上海市,21,上海市,310110,杨浦区,四平路,"121.509837,31.284586",[],商务住宅,商务住宅相关,商务住宅相关,121.509837,31.284586,"121.505437,31.286611",121.505437,31.286611,POINT (121.505437 31.286611),居住
B0FFIXQLM4,四平路1382弄585号,同五北路与济三路交叉口西北50米,商务住宅;商务住宅相关;商务住宅相关,120000,310000,上海市,21,上海市,310110,杨浦区,四平路,"121.511476,31.283196",[],商务住宅,商务住宅相关,商务住宅相关,121.511476,31.283196,"121.507082,31.285226",121.507082,31.285226,POINT (121.507082 31.285226),居住
B0FFHE9J5Q,同济大学彰武路校区学生公寓4号楼,抚顺路同济大学彰武路校区,商务住宅;住宅区;宿舍,120303,310000,上海市,21,上海市,310110,杨浦区,四平路,"121.514184,31.280953",[],商务住宅,住宅区,宿舍,121.514184,31.280953,"121.509799,31.282992",121.509799,31.282992,POINT (121.509799 31.282992),居住
B0HDUUJJHM,凤南一村控江路1443-1449号小区,控江路1443-1449号,商务住宅;住宅区;住宅小区,120302,310000,上海市,21,上海市,310110,杨浦区,四平路,"121.524554,31.276578",[],商务住宅,住宅区,住宅小区,121.524554,31.276578,"121.520206,31.278648",121.520206,31.278648,POINT (121.520206 31.278648),居住
B0FFFGQLGS,上海交通大学医学院进修、研究生宿舍,控江路1665号新华医院22号,商务住宅;住宅区;宿舍,120303,310000,上海市,21,上海市,310110,杨浦区,四平路,"121.517917,31.272658",[],商务住宅,住宅区,宿舍,121.517917,31.272658,"121.513546,31.274711",121.513546,31.274711,POINT (121.513546 31.274711),居住
B0FFG3WMD5,政肃路九十五弄29号,邯郸路220号复旦大学邯郸校区,商务住宅;住宅区;宿舍,120303,310000,上海市,21,上海市,310110,杨浦区,四平路,"121.505439,31.293776",[],商务住宅,住宅区,宿舍,121.505439,31.293776,"121.501022,31.295784",121.501022,31.295784,POINT (121.501022 31.295784),居住
B00155KCYC,同济国康公寓,国康路46弄-1-4号,商务住宅;住宅区;住宅小区,120302,310000,上海市,21,上海市,310110,杨浦区,四平路,"121.503638,31.286493",[],商务住宅,住宅区,住宅小区,121.503638,31.286493,"121.499215,31.288498",121.499215,31.288498,POINT (121.499215 31.288498),居住
B0FFHOTHQ6,洪泰智慧树创新空间,江浦路1500号2号楼1层,商务住宅;产业园区;产业园区,120100,310000,上海市,21,上海市,310110,杨浦区,四平路,"121.519178,31.273826",13501972050,商务住宅,产业园区,产业园区,121.519178,31.273826,"121.514811,31.275882",121.514811,31.275882,POINT (121.514811 31.275882),居住
B0FFG59ROU,国年路102弄32号,邯郸路220号复旦大学邯郸校区,商务住宅;住宅区;宿舍,120303,310000,上海市,21,上海市,310110,杨浦区,四平路,"121.508282,31.292962",[],商务住宅,住宅区,宿舍,121.508282,31.292962,"121.503875,31.294979",121.503875,31.294979,POINT (121.503875 31.294979),居住
B0FFG59ROV,国年路101弄36号,邯郸路220号复旦大学邯郸校区,商务住宅;住宅区;宿舍,120303,310000,上海市,21,上海市,310110,杨浦区,四平路,"121.506531,31.292441",[],商务住宅,住宅区,宿舍,121.506531,31.292441,"121.502118,31.294453",121.502118,31.294453,POINT (121.502118 31.294453),居住
B0IAT11PHC,双辽新村小区双辽支路60弄,双辽支路与许昌路交叉口东北120米,商务住宅;住宅区;住宅小区,120302,310000,上海市,21,上海市,310110,杨浦区,四平路,"121.516134,31.270171",[],商务住宅,住宅区,住宅小区,121.516134,31.270171,"121.511757,31.27222",121.511757,31.27222,POINT (121.511757 31.27222),居住
B0IDBZMCHF,控江路1466号,控江路与长浜路交叉口东220米,商务住宅;住宅区;住宅小区,120302,310000,上海市,21,上海市,310110,杨浦区,四平路,"121.521752,31.275992",[],商务住宅,住宅区,住宅小区,121.521752,31.275992,"121.517394,31.278055",121.517394,31.278055,POINT (121.517394 31.278055),居住
B0IB756J1P,茶园坊国顺路81弄,黄兴路与国权路交叉口西120米,商务住宅;住宅区;住宅小区,120302,310000,上海市,21,上海市,310110,杨浦区,四平路,"121.519282,31.289713",[],商务住宅,住宅区,住宅小区,121.519282,31.289713,"121.514915,31.291763",121.514915,31.291763,POINT (121.514915 31.291763),居住
B0FFGE53BD,同济大学彰武路校区学生宿舍乙楼,抚顺路地铁站2号口步行60米,商务住宅;住宅区;宿舍,120303,310000,上海市,21,上海市,310110,杨浦区,四平路,"121.514729,31.283764",[],商务住宅,住宅区,宿舍,121.514729,31.283764,"121.510346,31.285803",121.510346,31.285803,POINT (121.510346 31.285803),居住
B0FFI8F5IX,凤城四村8区,黄兴路1507附近,商务住宅;商务住宅相关;商务住宅相关,120000,310000,上海市,21,上海市,310110,杨浦区,四平路,"121.521137,31.283258",[],商务住宅,商务住宅相关,商务住宅相关,121.521137,31.283258,"121.516776,31.285316",121.516776,31.285316,POINT (121.516776 31.285316),居住
B0IDNUK38Q,控江路1464号,控江路与凤城路交叉口西240米,商务住宅;商务住宅相关;商务住宅相关,120000,310000,上海市,21,上海市,310110,杨浦区,四平路,"121.521972,31.276057",[],商务住宅,商务住宅相关,商务住宅相关,121.521972,31.276057,"121.517615,31.27812",121.517615,31.27812,POINT (121.517615 31.27812),居住
B0IBKMGZ9F,艺术花园,辽源西路与大连路交叉口东120米,商务住宅;商务住宅相关;商务住宅相关,120000,310000,上海市,21,上海市,310110,杨浦区,四平路,"121.507741,31.268447",[],商务住宅,商务住宅相关,商务住宅相关,121.507741,31.268447,"121.503334,31.270472",121.503334,31.270472,POINT (121.503334 31.270472),居住
