id,name,address,type,typecode,pcode,pname,citycode,cityname,adcode,adname,business_area,location,tel,bigType,midType,smallType,gcj_lng,gcj_lat,wgs84_loc,wgs84Lng,wgs84Lat,geometry
B00155QWTP,上海农商银行24小时自助银行(杨浦支行),黄兴路1599号新纪元国际广场F1层,金融保险服务;自动提款机;上海农商银行ATM,160347,310000,上海市,21,上海市,310110,杨浦区,四平路,"121.521245,31.286924",[],金融保险服务,自动提款机,上海农商银行ATM,121.521245,31.286924,"121.516884,31.288981",121.516884,31.288981,POINT (121.516884 31.288981)
B0FFJ8YQ6I,华联超市(四平店),国年路95号(国权路地铁站4号口步行380米),购物服务;超级市场;上海华联,060405,310000,上海市,21,上海市,310110,杨浦区,四平路,"121.508662,31.291923",[],购物服务,超级市场,上海华联,121.508662,31.291923,"121.504257,31.293941",121.504257,31.293941,POINT (121.504257 31.293941)
B0FFFFPRND,LaBamba拉芭玛墨西哥餐吧(五角场店),国定路333号3号湾广场2层223号,餐饮服务;外国餐厅;墨西哥菜,050216,310000,上海市,21,上海市,310110,杨浦区,四平路,"121.509184,31.296406",021-55958085,餐饮服务,外国餐厅,墨西哥菜,121.509184,31.296406,"121.50478,31.298424",121.50478,31.298424,POINT (121.50478 31.298424)
B0FFH181L1,日本料理(同济联合广场店),彰武路42号同济联合广场F2层,餐饮服务;中餐厅;中餐厅,050100,310000,上海市,21,上海市,310110,杨浦区,四平路,"121.507773,31.281595",[],餐饮服务,中餐厅,中餐厅,121.507773,31.281595,"121.503365,31.283615",121.503365,31.283615,POINT (121.503365 31.283615)
B0JDPDWSZ1,东隧道股份有限公司,辽源西路114号,公司企业;公司;公司,170200,310000,上海市,21,上海市,310110,杨浦区,四平路,"121.512333,31.268932",[],公司企业,公司,公司,121.512333,31.268932,"121.507943,31.270971",121.507943,31.270971,POINT (121.507943 31.270971)
B0I1N62ND5,菜鸟驿站(上海市杨浦区凤城路79号店),控江路街道凤城路79号-1,生活服务;物流速递;物流速递,070500,310000,上海市,21,上海市,310110,杨浦区,四平路,"121.523085,31.278943",[],生活服务,物流速递,物流速递,121.523085,31.278943,"121.518731,31.281008",121.518731,31.281008,POINT (121.518731 31.281008)
B0J0NOIACE,老上海葱油饼(阳普长岭菜市场店),阳普长岭菜市场东门旁,餐饮服务;餐饮相关场所;餐饮相关,050000,310000,上海市,21,上海市,310110,杨浦区,四平路,"121.520332,31.280590",18196689619,餐饮服务,餐饮相关场所,餐饮相关,121.520332,31.28059,"121.515969,31.282647",121.515969,31.282647,POINT (121.515969 31.282647)
B00155FPSW,华联超市(辽新店),辽源西路82号,购物服务;超级市场;上海华联,060405,310000,上海市,21,上海市,310110,杨浦区,四平路,"121.513534,31.269222",021-55961769;021-65031461,购物服务,超级市场,上海华联,121.513534,31.269222,"121.509148,31.271264",121.509148,31.271264,POINT (121.509148 31.271264)
B0HDJOV1W5,菜鸟驿站(上海市双辽路151号店),上海市江浦路街道双辽路151号,生活服务;物流速递;物流速递,070500,310000,上海市,21,上海市,310110,杨浦区,四平路,"121.518681,31.270193",13681887701;18221667834,生活服务,物流速递,物流速递,121.518681,31.270193,"121.514313,31.272249",121.514313,31.272249,POINT (121.514313 31.272249)
B0FFL93GDT,江浦社区卫生服务中心双辽路社区卫生服务站家庭医生工作站,双辽路双辽新村小区(江浦路地铁站2号口步行480米),医疗保健服务;综合医院;卫生院,090102,310000,上海市,21,上海市,310110,杨浦区,四平路,"121.515731,31.272229",[],医疗保健服务,综合医院,卫生院,121.515731,31.272229,"121.511353,31.274276",121.511353,31.274276,POINT (121.511353 31.274276)
B0FFL4RQ3Q,小马海鲜(双辽菜市场店),双辽支路双辽菜市场(江浦路地铁站6号口步行350米),餐饮服务;中餐厅;浙江菜,050106,310000,上海市,21,上海市,310110,杨浦区,四平路,"121.517633,31.270112",15821996567,餐饮服务,中餐厅,浙江菜,121.517633,31.270112,"121.513261,31.272166",121.513261,31.272166,POINT (121.513261 31.272166)
B0FFGQIE0J,浙江绍兴古越龙山(沈永和黄酒专卖店),国定路阳普平昌菜市场NO.029,购物服务;专卖店;烟酒专卖店,061210,310000,上海市,21,上海市,310110,杨浦区,四平路,"121.513650,31.294167",13918869387;18217303396,购物服务,专卖店,烟酒专卖店,121.51365,31.294167,"121.509262,31.296199",121.509262,31.296199,POINT (121.509262 31.296199)
B00155QT5W,同济大学出版社,四平路1239号同济大学四平路校区,科教文化服务;传媒机构;出版社,141105,310000,上海市,21,上海市,310110,杨浦区,四平路,"121.504279,31.279172",021-65981474,科教文化服务,传媒机构,出版社,121.504279,31.279172,"121.499859,31.281182",121.499859,31.281182,POINT (121.499859 31.281182)
B0FFGSFEG2,普长岭菜市场,延吉西路长岭路56号,购物服务;综合市场;蔬菜市场,060705,310000,上海市,21,上海市,310110,杨浦区,四平路,"121.520148,31.280692",021-65039546,购物服务,综合市场,蔬菜市场,121.520148,31.280692,"121.515784,31.282748",121.515784,31.282748,POINT (121.515784 31.282748)
B0FFF5UIGO,同济大学网球场(赤峰路),四平路1239号同济大学,体育休闲服务;运动场馆;网球场,080103,310000,上海市,21,上海市,310110,杨浦区,四平路,"121.501584,31.282734",[],体育休闲服务,运动场馆,网球场,121.501584,31.282734,"121.497154,31.284735",121.497154,31.284735,POINT (121.497154 31.284735)
B0FFKAXSRD,上汽荣威体验中心(杨浦邯郸路店),邯郸路195号(复旦大学地铁站2号口步行440米),汽车销售;汽车销售;汽车销售|汽车维修;汽车维修;汽车维修,020000|030000,310000,上海市,21,上海市,310110,杨浦区,四平路,"121.501016,31.295132",021-35363070;021-65800689,汽车销售,汽车销售,汽车销售|汽车维修,121.501016,31.295132,"121.496583,31.297126",121.496583,31.297126,POINT (121.496583 31.297126)
B0FFFOGAVF,上海德国中心,四平路1239号同济大学四平路校区科学苑,商务住宅;商务住宅相关;商务住宅相关,120000,310000,上海市,21,上海市,310110,杨浦区,四平路,"121.50551,31.282219",[],商务住宅,商务住宅相关,商务住宅相关,121.50551,31.282219,"121.501094,31.284232",121.501094,31.284232,POINT (121.501094 31.284232)
B00156EIOO,上海开放大学国际会议中心,政法路195号,科教文化服务;会展中心;会展中心,140300,310000,上海市,21,上海市,310110,杨浦区,四平路,"121.513691,31.293023",[],科教文化服务,会展中心,会展中心,121.513691,31.293023,"121.509304,31.295056",121.509304,31.295056,POINT (121.509304 31.295056)
B0FFK8ZXO3,上海华联商厦,大连路1176号,购物服务;便民商店/便利店;便民商店/便利店,060200,310000,上海市,21,上海市,310110,杨浦区,四平路,"121.506974,31.267845",[],购物服务,便民商店/便利店,便民商店/便利店,121.506974,31.267845,"121.502565,31.269868",121.502565,31.269868,POINT (121.502565 31.269868)
B0H2A78GTW,上海畅摇建筑设计有限公司,上海国际设计中心东楼302室,公司企业;公司;建筑公司,170202,310000,上海市,21,上海市,310110,杨浦区,四平路,"121.501959,31.287017",[],公司企业,公司,建筑公司,121.501959,31.287017,"121.49753,31.289017",121.49753,31.289017,POINT (121.49753 31.289017)
B0H0ZAWGD1,上海五方建筑科技,国康路100号上海国际设计中心西楼504室,公司企业;公司;建筑公司,170202,310000,上海市,21,上海市,310110,杨浦区,四平路,"121.501454,31.287058",[],公司企业,公司,建筑公司,121.501454,31.287058,"121.497023,31.289057",121.497023,31.289057,POINT (121.497023 31.289057)
B0IATZO205,复旦大学国家大学科技园地面停车场,[],交通设施服务;停车场;公共停车场,150904,310000,上海市,21,上海市,310110,杨浦区,四平路,"121.505987,31.289074",[],交通设施服务,停车场,公共停车场,121.505987,31.289074,"121.501572,31.291085",121.501572,31.291085,POINT (121.501572 31.291085)
B0FFFWUDWX,大连西路4弄小区停车场,大连西路4弄(四平路地铁站1号口步行230米),交通设施服务;停车场;公共停车场,150904,310000,上海市,21,上海市,310110,杨浦区,四平路,"121.500480,31.275946",[],交通设施服务,停车场,公共停车场,121.50048,31.275946,"121.496047,31.277946",121.496047,31.277946,POINT (121.496047 31.277946)
BX10035457,国权路地铁站1号口,18号线,交通设施服务;地铁站;出入口,150501,310000,上海市,21,上海市,310110,杨浦区,四平路,"121.510670,31.289962",[],交通设施服务,地铁站,出入口,121.51067,31.289962,"121.506272,31.291987",121.506272,31.291987,POINT (121.506272 31.291987)
B0IATZO204,复旦大学国家大学科技园地面停车场(出入口),[],交通设施服务;停车场;停车场出入口,150909,310000,上海市,21,上海市,310110,杨浦区,四平路,"121.505987,31.289074",[],交通设施服务,停车场,停车场出入口,121.505987,31.289074,"121.501572,31.291085",121.501572,31.291085,POINT (121.501572 31.291085)
B0IGC5D3PP,上海国际设计创新学院,四平路与赤峰路交叉口东北200米,科教文化服务;学校;高等院校,141201,310000,上海市,21,上海市,310110,杨浦区,四平路,"121.505641,31.280329",[],科教文化服务,学校,高等院校,121.505641,31.280329,"121.501226,31.282343",121.501226,31.282343,POINT (121.501226 31.282343)
B0FFFFPJZQ,杨浦区大学生(青年)创业园,四平路1939-4附近(国权路地铁站1号口步行190米),商务住宅;产业园区;产业园区,120100,310000,上海市,21,上海市,310110,杨浦区,四平路,"121.510613,31.290708",[],商务住宅,产业园区,产业园区,121.510613,31.290708,"121.506215,31.292732",121.506215,31.292732,POINT (121.506215 31.292732)
B0FFG4PG60,新华医院-儿神经外科门诊,控江路1665号新华医院2号楼3楼,医疗保健服务;医疗保健服务场所;医疗保健服务场所,090000,310000,上海市,21,上海市,310110,杨浦区,四平路,"121.517747,31.274171",[],医疗保健服务,医疗保健服务场所,医疗保健服务场所,121.517747,31.274171,"121.513375,31.276223",121.513375,31.276223,POINT (121.513375 31.276223)
B0GR6O3FZA,德哥手足护理中心,大连路825号A座1楼,医疗保健服务;医疗保健服务场所;医疗保健服务场所,090000,310000,上海市,21,上海市,310110,杨浦区,四平路,"121.508230,31.263440",[],医疗保健服务,医疗保健服务场所,医疗保健服务场所,121.50823,31.26344,"121.503826,31.265469",121.503826,31.265469,POINT (121.503826 31.265469)
B0IBKHG2ME,刘宸屹康养中心,四平路与国年路交叉口东20米,医疗保健服务;医疗保健服务场所;医疗保健服务场所,090000,310000,上海市,21,上海市,310110,杨浦区,四平路,"121.511299,31.291071",[],医疗保健服务,医疗保健服务场所,医疗保健服务场所,121.511299,31.291071,"121.506903,31.293097",121.506903,31.293097,POINT (121.506903 31.293097)
B0HKH7FFQ0,叶子养生(控江店),控江路2028号海际商业广场F5,医疗保健服务;医疗保健服务场所;医疗保健服务场所,090000,310000,上海市,21,上海市,310110,杨浦区,四平路,"121.509316,31.273493",[],医疗保健服务,医疗保健服务场所,医疗保健服务场所,121.509316,31.273493,"121.504915,31.275521",121.504915,31.275521,POINT (121.504915 31.275521)
B0HGR1OLJ4,德哥灰指甲甲沟炎跖疣鸡眼脚气修复(五角场店),杨浦区 国定路95号,医疗保健服务;医疗保健服务场所;医疗保健服务场所,090000,310000,上海市,21,上海市,310110,杨浦区,四平路,"121.514916,31.293699",13764169352,医疗保健服务,医疗保健服务场所,医疗保健服务场所,121.514916,31.293699,"121.510533,31.295735",121.510533,31.295735,POINT (121.510533 31.295735)
B0IAP7SB43,NEO,邯郸路399号-A01五角场创场内里百货内,体育休闲服务;娱乐场所;酒吧,080304,310000,上海市,21,上海市,310110,杨浦区,四平路,"121.510305,31.298078",18601772329,体育休闲服务,娱乐场所,酒吧,121.510305,31.298078,"121.505905,31.300099",121.505905,31.300099,POINT (121.505905 31.300099)
B0IALOEEDB,柯达冲印店(海上海店),大连路1168号2楼,生活服务;摄影冲印店;摄影冲印,071300,310000,上海市,21,上海市,310110,杨浦区,四平路,"121.506568,31.267419",021-55968721;13636516426,生活服务,摄影冲印店,摄影冲印,121.506568,31.267419,"121.502157,31.269441",121.502157,31.269441,POINT (121.502157 31.269441)
B0FFI5DQ95,丰巢快递柜,控江路2063号五环大厦西座一楼大堂,生活服务;物流速递;物流速递,070500,310000,上海市,21,上海市,310110,杨浦区,四平路,"121.508266,31.271403",[],生活服务,物流速递,物流速递,121.508266,31.271403,"121.503861,31.273428",121.503861,31.273428,POINT (121.503861 31.273428)
B0HU5XRD1P,菜鸟驿站(全家四平路店),[],生活服务;物流速递;物流速递,070500,310000,上海市,21,上海市,310110,杨浦区,四平路,"121.504791,31.274750",[],生活服务,物流速递,物流速递,121.504791,31.27475,"121.500373,31.276764",121.500373,31.276764,POINT (121.500373 31.276764)
B0FFMAWKT9,顺丰速运,控江路1455弄一号后门(江浦路地铁站1号口步行460米),生活服务;物流速递;物流速递,070500,310000,上海市,21,上海市,310110,杨浦区,四平路,"121.523524,31.276129",[],生活服务,物流速递,物流速递,121.523524,31.276129,"121.519172,31.278197",121.519172,31.278197,POINT (121.519172 31.278197)
B0HUFRVVVV,丰巢快递柜,国年路65弄之15-17号(国权路地铁站4号口步行170米),生活服务;物流速递;物流速递,070500,310000,上海市,21,上海市,310110,杨浦区,四平路,"121.509747,31.291088",[],生活服务,物流速递,物流速递,121.509747,31.291088,"121.505346,31.29311",121.505346,31.29311,POINT (121.505346 31.29311)
B0HKM5A5KJ,黑龙江炒货(密云路店),密云路密云小区,购物服务;综合市场;果品市场,060704,310000,上海市,21,上海市,310110,杨浦区,四平路,"121.496651,31.278201",[],购物服务,综合市场,果品市场,121.496651,31.278201,"121.492204,31.280189",121.492204,31.280189,POINT (121.492204 31.280189)
B0H1OX0G4R,LAVAZZA COFFEE(海上海·弘基休闲广场C区店),许昌路28号附近海上海·弘基休闲广场C区F1,餐饮服务;咖啡厅;咖啡厅,050500,310000,上海市,21,上海市,310110,杨浦区,四平路,"121.507627,31.268115",[],餐饮服务,咖啡厅,咖啡厅,121.507627,31.268115,"121.50322,31.27014",121.50322,31.27014,POINT (121.50322 31.27014)
B0FFH5P9JN,菜鸟驿站(上海虹口区大连西路24号店),大连西路24号(四平路地铁站4号口步行260米),生活服务;物流速递;物流速递,070500,310000,上海市,21,上海市,310110,杨浦区,四平路,"121.498620,31.276450",4001787878,生活服务,物流速递,物流速递,121.49862,31.27645,"121.49418,31.278444",121.49418,31.278444,POINT (121.49418 31.278444)
B0G26RNH6U,四平路东方商厦附近大型停车场,四平路金岛大厦西侧,交通设施服务;停车场;停车场相关,150900,310000,上海市,21,上海市,310110,杨浦区,四平路,"121.515044,31.298319",[],交通设施服务,停车场,停车场相关,121.515044,31.298319,"121.510661,31.300353",121.510661,31.300353,POINT (121.510661 31.300353)
B0FFK8UPKN,新东方妈咪小屋,虹口区大连路1546号(近卓新路),生活服务;生活服务场所;生活服务场所,070000,310000,上海市,21,上海市,310110,杨浦区,四平路,"121.504545,31.272440",[],生活服务,生活服务场所,生活服务场所,121.504545,31.27244,"121.500127,31.274454",121.500127,31.274454,POINT (121.500127 31.274454)
B0FFH2JOUP,上海东方大学城餐饮服务管理有限公司,国年路275弄15号,公司企业;公司;公司,170200,310000,上海市,21,上海市,310110,杨浦区,四平路,"121.504768,31.294826",021-65642467,公司企业,公司,公司,121.504768,31.294826,"121.500349,31.296831",121.500349,31.296831,POINT (121.500349 31.296831)
B00151AF9D,中国石化江浦加油站,江浦路1903号,汽车服务;加油站;中国石化,010101,310000,上海市,21,上海市,310110,杨浦区,四平路,"121.517032,31.278932",021-65038514,汽车服务,加油站,中国石化,121.517032,31.278932,"121.512658,31.28098",121.512658,31.28098,POINT (121.512658 31.28098)
B0FFHGFK9V,OC网东方有线四平路街道管理站,阜新路174号,生活服务;生活服务场所;生活服务场所,070000,310000,上海市,21,上海市,310110,杨浦区,四平路,"121.506584,31.276365",021-65028670,生活服务,生活服务场所,生活服务场所,121.506584,31.276365,"121.502173,31.278383",121.502173,31.278383,POINT (121.502173 31.278383)
B0FFHR3DLZ,德国赫姆勒(东方商厦杨浦店),四平路2500号东方商厦B1层,购物服务;家居建材市场;厨卫市场,060604,310000,上海市,21,上海市,310110,杨浦区,四平路,"121.515576,31.299059",[],购物服务,家居建材市场,厨卫市场,121.515576,31.299059,"121.511195,31.301095",121.511195,31.301095,POINT (121.511195 31.301095)
B0FFIXR0TM,东方家园21号楼,政本路115号,地名地址信息;门牌信息;楼栋号,190403,310000,上海市,21,上海市,310110,杨浦区,四平路,"121.514342,31.290954",[],地名地址信息,门牌信息,楼栋号,121.514342,31.290954,"121.509957,31.292989",121.509957,31.292989,POINT (121.509957 31.292989)
B0FFJ3JSLN,东方家园14号楼,政本路115号,地名地址信息;门牌信息;楼栋号,190403,310000,上海市,21,上海市,310110,杨浦区,四平路,"121.515215,31.291581",[],地名地址信息,门牌信息,楼栋号,121.515215,31.291581,"121.510833,31.293619",121.510833,31.293619,POINT (121.510833 31.293619)
B0FFIXR23H,东方家园3号楼,政本路115号,地名地址信息;门牌信息;楼栋号,190403,310000,上海市,21,上海市,310110,杨浦区,四平路,"121.514777,31.290788",[],地名地址信息,门牌信息,楼栋号,121.514777,31.290788,"121.510394,31.292825",121.510394,31.292825,POINT (121.510394 31.292825)
B0FFIXPYJD,东方家园16号楼,政本路115号,地名地址信息;门牌信息;楼栋号,190403,310000,上海市,21,上海市,310110,杨浦区,四平路,"121.514647,31.291630",[],地名地址信息,门牌信息,楼栋号,121.514647,31.29163,"121.510263,31.293666",121.510263,31.293666,POINT (121.510263 31.293666)
B0FFIXR3MD,东方家园4号楼,政本路115号,地名地址信息;门牌信息;楼栋号,190403,310000,上海市,21,上海市,310110,杨浦区,四平路,"121.514684,31.290811",[],地名地址信息,门牌信息,楼栋号,121.514684,31.290811,"121.5103,31.292847",121.5103,31.292847,POINT (121.5103 31.292847)
B0FFIXQNAX,东方家园5号楼,政本路115号,地名地址信息;门牌信息;楼栋号,190403,310000,上海市,21,上海市,310110,杨浦区,四平路,"121.515132,31.291254",[],地名地址信息,门牌信息,楼栋号,121.515132,31.291254,"121.51075,31.293292",121.51075,31.293292,POINT (121.51075 31.293292)
B0FFI0PAHJ,八发家电维修,国定路131号,生活服务;维修站点;维修站点,071200,310000,上海市,21,上海市,310110,杨浦区,四平路,"121.516544,31.290572",[],生活服务,维修站点,维修站点,121.516544,31.290572,"121.512167,31.292614",121.512167,31.292614,POINT (121.512167 31.292614)
B0GR6C12X7,手机电脑维修,手机电脑售后维修中心政本路111号,生活服务;维修站点;维修站点,071200,310000,上海市,21,上海市,310110,杨浦区,四平路,"121.514640,31.291111",[],生活服务,维修站点,维修站点,121.51464,31.291111,"121.510256,31.293147",121.510256,31.293147,POINT (121.510256 31.293147)
B0FFHO5RDD,电脑手机维修(迅维科技),抚顺路255-2号附近,购物服务;家电电子卖场;数码电子,060306,310000,上海市,21,上海市,310110,杨浦区,四平路,"121.514577,31.279771",13764917231,购物服务,家电电子卖场,数码电子,121.514577,31.279771,"121.510194,31.281812",121.510194,31.281812,POINT (121.510194 31.281812)
B0FFFDDGWG,阳光电脑维修(锦西路),锦西路150弄1号,生活服务;维修站点;维修站点,071200,310000,上海市,21,上海市,310110,杨浦区,四平路,"121.508080,31.273641",[],生活服务,维修站点,维修站点,121.50808,31.273641,"121.503674,31.275665",121.503674,31.275665,POINT (121.503674 31.275665)
B0FFM7FYXX,未来人类电脑售后维修中心,黄兴路1737号,生活服务;维修站点;维修站点,071200,310000,上海市,21,上海市,310110,杨浦区,四平路,"121.519111,31.290761",[],生活服务,维修站点,维修站点,121.519111,31.290761,"121.514743,31.29281",121.514743,31.29281,POINT (121.514743 31.29281)
B00156GWO0,上海海源电子设备维修有限公司,黄兴路1599号新纪元国际广场15层1508号,公司企业;公司;公司,170200,310000,上海市,21,上海市,310110,杨浦区,四平路,"121.521099,31.286842",[],公司企业,公司,公司,121.521099,31.286842,"121.516738,31.288898",121.516738,31.288898,POINT (121.516738 31.288898)
B0FFH0HZUQ,华为手机售后中心(国顺路店),国顺路66弄2号楼2302-A室,生活服务;维修站点;维修站点,071200,310000,上海市,21,上海市,310110,杨浦区,四平路,"121.518674,31.291861",[],生活服务,维修站点,维修站点,121.518674,31.291861,"121.514304,31.293909",121.514304,31.293909,POINT (121.514304 31.293909)
B0FFGPUWZ4,上海Macbook苹果笔记本电脑维修点(杨浦店),国顺路66弄2号楼23层,生活服务;维修站点;维修站点,071200,310000,上海市,21,上海市,310110,杨浦区,四平路,"121.518705,31.291904",[],生活服务,维修站点,维修站点,121.518705,31.291904,"121.514335,31.293952",121.514335,31.293952,POINT (121.514335 31.293952)
B0FFH1ZCFW,铭修苹果手机iphone维修店(杨浦区服务点),四平路2500号金岛大厦19楼1903B,生活服务;维修站点;维修站点,071200,310000,上海市,21,上海市,310110,杨浦区,四平路,"121.515930,31.298300",[],生活服务,维修站点,维修站点,121.51593,31.2983,"121.51155,31.300337",121.51155,31.300337,POINT (121.51155 31.300337)
B0FFLBWZDT,五角场颐高数码广场苹果手机电脑专业维修点,邯郸路365号2楼L203室,生活服务;维修站点;维修站点,071200,310000,上海市,21,上海市,310110,杨浦区,四平路,"121.508021,31.297367",15921517209,生活服务,维修站点,维修站点,121.508021,31.297367,"121.503613,31.299381",121.503613,31.299381,POINT (121.503613 31.299381)
B00156SLGX,上海悦鑫汽车专项修理有限公司,国权路93号-2号,汽车维修;汽车维修;汽车维修,030000,310000,上海市,21,上海市,310110,杨浦区,四平路,"121.516843,31.287921",021-55580890,汽车维修,汽车维修,汽车维修,121.516843,31.287921,"121.512467,31.289965",121.512467,31.289965,POINT (121.512467 31.289965)
B0FFIA6N0O,上海毫阚汽车服务有限公司,国顺路165号,汽车维修;汽车综合维修;汽车综合维修|汽车服务;汽车服务相关;汽车服务相关,030100|010000,310000,上海市,21,上海市,310110,杨浦区,四平路,"121.513591,31.290832",15921260016;13127937332,汽车维修,汽车综合维修,汽车综合维修|汽车服务,121.513591,31.290832,"121.509203,31.292865",121.509203,31.292865,POINT (121.509203 31.292865)
B0FFGFB2EU,杨浦顺风助动车修理,国顺路377号,摩托车服务;摩托车维修;摩托车维修|生活服务;维修站点;维修站点,040200|071200,310000,上海市,21,上海市,310110,杨浦区,四平路,"121.510631,31.291944",[],摩托车服务,摩托车维修,摩托车维修|生活服务,121.510631,31.291944,"121.506233,31.293968",121.506233,31.293968,POINT (121.506233 31.293968)
B0GUU50SF6,Punchline Coffee&Roaster（同济店）,四平路1024号1幢1层103-104室,餐饮服务;咖啡厅;咖啡厅,050500,310000,上海市,21,上海市,310110,杨浦区,四平路,"121.504798,31.277427",18611922788,餐饮服务,咖啡厅,咖啡厅,121.504798,31.277427,"121.50038,31.27944",121.50038,31.27944,POINT (121.50038 31.27944)
B00156NF0J,上海快E修电脑服务(邯郸路店),邯郸路365号颐高数码广场二楼B203,生活服务;生活服务场所;生活服务场所,070000,310000,上海市,21,上海市,310110,杨浦区,四平路,"121.508681,31.297570",[],生活服务,生活服务场所,生活服务场所,121.508681,31.29757,"121.504275,31.299586",121.504275,31.299586,POINT (121.504275 31.299586)
B0FFLFG8IF,杨浦区戴尔服务中心,铁岭路32号同叶大厦一楼大厅101室,购物服务;家电电子卖场;数码电子,060306,310000,上海市,21,上海市,310110,杨浦区,四平路,"121.514633,31.277912",021-33620955;18964664775,购物服务,家电电子卖场,数码电子,121.514633,31.277912,"121.51025,31.279954",121.51025,31.279954,POINT (121.51025 31.279954)
B00156YNRU,湘下人风味小吃,阜新路268号,餐饮服务;中餐厅;湖南菜(湘菜),050108,310000,上海市,21,上海市,310110,杨浦区,四平路,"121.508535,31.279958",15000874118,餐饮服务,中餐厅,湖南菜(湘菜),121.508535,31.279958,"121.50413,31.281981",121.50413,31.281981,POINT (121.50413 31.281981)
B0HRVR0M22,赣湘小厨(绿色米兰奥特莱斯店),国权路39号绿色米兰奥特莱斯B2,餐饮服务;中餐厅;中餐厅,050100,310000,上海市,21,上海市,310110,杨浦区,四平路,"121.518481,31.288294",[],餐饮服务,中餐厅,中餐厅,121.518481,31.288294,"121.514111,31.290342",121.514111,31.290342,POINT (121.514111 31.290342)
B0G0BU28RX,品湘阁浏阳蒸菜,大连路1550号,餐饮服务;餐饮相关场所;餐饮相关,050000,310000,上海市,21,上海市,310110,杨浦区,四平路,"121.502974,31.273707",[],餐饮服务,餐饮相关场所,餐饮相关,121.502974,31.273707,"121.49855,31.275716",121.49855,31.275716,POINT (121.49855 31.275716)
B0FFH4LL4M,口湘堂(彰武路店),彰武路42号同济联合广场2层,餐饮服务;中餐厅;湖南菜(湘菜),050108,310000,上海市,21,上海市,310110,杨浦区,四平路,"121.507489,31.281694",021-33626098,餐饮服务,中餐厅,湖南菜(湘菜),121.507489,31.281694,"121.50308,31.283713",121.50308,31.283713,POINT (121.50308 31.283713)
B0FFHRZIUM,千机网形象店(上海邯郸颐高店),邯郸路365号颐高数码广场2层L203室,生活服务;维修站点;维修站点,071200,310000,上海市,21,上海市,310110,杨浦区,四平路,"121.508681,31.297570",15921517208,生活服务,维修站点,维修站点,121.508681,31.29757,"121.504275,31.299586",121.504275,31.299586,POINT (121.504275 31.299586)
B00155GQOK,悦鑫洗车坊,国权路93之1-2,汽车维修;汽车综合维修;汽车综合维修|汽车服务;洗车场;洗车场,030100|010500,310000,上海市,21,上海市,310110,杨浦区,四平路,"121.516782,31.287947",021-55580890,汽车维修,汽车综合维修,汽车综合维修|汽车服务,121.516782,31.287947,"121.512406,31.289991",121.512406,31.289991,POINT (121.512406 31.289991)
B0H22NHP0M,顶中顶面馆,大连西路12号,餐饮服务;快餐厅;快餐厅,050300,310000,上海市,21,上海市,310110,杨浦区,四平路,"121.500168,31.275966",18616220210,餐饮服务,快餐厅,快餐厅,121.500168,31.275966,"121.495733,31.277965",121.495733,31.277965,POINT (121.495733 31.277965)
B0IBKMGTEM,钟表眼镜修锁,[],生活服务;生活服务场所;生活服务场所,070000,310000,上海市,21,上海市,310110,杨浦区,四平路,"121.516674,31.269820",[],生活服务,生活服务场所,生活服务场所,121.516674,31.26982,"121.512299,31.271871",121.512299,31.271871,POINT (121.512299 31.271871)
B0FFM78OEX,小舒开锁,赤峰路26号,购物服务;购物相关场所;购物相关场所,060000,310000,上海市,21,上海市,310110,杨浦区,四平路,"121.500512,31.278675",[],购物服务,购物相关场所,购物相关场所,121.500512,31.278675,"121.496079,31.280674",121.496079,31.280674,POINT (121.496079 31.280674)
B00155HFSG,兰州牛肉拉面(大连路),大连路1550号(鞍山七村小区沿街商铺),餐饮服务;中餐厅;清真菜馆,050121,310000,上海市,21,上海市,310110,杨浦区,四平路,"121.502918,31.273758",18697274966,餐饮服务,中餐厅,清真菜馆,121.502918,31.273758,"121.498494,31.275766",121.498494,31.275766,POINT (121.498494 31.275766)
B0FFG7JRC4,手表换电池(各类纽扣电池),赤峰路67号,购物服务;专卖店;专营店,061200,310000,上海市,21,上海市,310110,杨浦区,四平路,"121.499608,31.279529",021-65985847;13761720718,购物服务,专卖店,专营店,121.499608,31.279529,"121.495171,31.281525",121.495171,31.281525,POINT (121.495171 31.281525)
B0FFHDBP4I,神舟电脑(邯郸路店),邯郸路365号神舟笔记本电脑售后维修中心,购物服务;家电电子卖场;数码电子,060306,310000,上海市,21,上海市,310110,杨浦区,四平路,"121.508539,31.297494",13122833212,购物服务,家电电子卖场,数码电子,121.508539,31.297494,"121.504133,31.29951",121.504133,31.29951,POINT (121.504133 31.29951)
B0FFGE5Q5W,上海四平物业管理有限公司,鞍山路215弄5号甲,生活服务;生活服务场所;生活服务场所,070000,310000,上海市,21,上海市,310110,杨浦区,四平路,"121.509385,31.278456",[],生活服务,生活服务场所,生活服务场所,121.509385,31.278456,"121.504984,31.280482",121.504984,31.280482,POINT (121.504984 31.280482)
B0FFKZNB0D,五味缘小郡肝串串香(龙虾烤鱼)(大连路店),大连路1548-4号,餐饮服务;中餐厅;火锅店,050117,310000,上海市,21,上海市,310110,杨浦区,四平路,"121.503426,31.273367",18015911777,餐饮服务,中餐厅,火锅店,121.503426,31.273367,"121.499003,31.275377",121.499003,31.275377,POINT (121.499003 31.275377)
B0GKX9HFX0,青禾,四平路1388号同济联合广场F2,餐饮服务;外国餐厅;日本料理,050202,310000,上海市,21,上海市,310110,杨浦区,四平路,"121.507770,31.281682",[],餐饮服务,外国餐厅,日本料理,121.50777,31.281682,"121.503362,31.283702",121.503362,31.283702,POINT (121.503362 31.283702)
B0FFGHIB4B,小天鹅捞烫时代(国权路分店),国权路326号1层,餐饮服务;中餐厅;火锅店,050117,310000,上海市,21,上海市,310110,杨浦区,四平路,"121.508254,31.290548",17717623850,餐饮服务,中餐厅,火锅店,121.508254,31.290548,"121.503847,31.292566",121.503847,31.292566,POINT (121.503847 31.292566)
B0FFJ1LBIW,烤全鱼鸡公煲(大连路店),大连路1548号,餐饮服务;中餐厅;中餐厅,050100,310000,上海市,21,上海市,310110,杨浦区,四平路,"121.503305,31.273502",13817250619;18721053416,餐饮服务,中餐厅,中餐厅,121.503305,31.273502,"121.498882,31.275512",121.498882,31.275512,POINT (121.498882 31.275512)
B0HDSY5AYP,多彩贵州黔源贵州菜(同济大学店),同济联合广场E座3层,餐饮服务;中餐厅;中餐厅,050100,310000,上海市,21,上海市,310110,杨浦区,四平路,"121.508082,31.281519",[],餐饮服务,中餐厅,中餐厅,121.508082,31.281519,"121.503676,31.28354",121.503676,31.28354,POINT (121.503676 31.28354)
B00156NYOW,哈尔滨饺子王(阜新店),阜新路268号,餐饮服务;中餐厅;特色/地方风味餐厅,050118,310000,上海市,21,上海市,310110,杨浦区,四平路,"121.508583,31.280018",15921972776,餐饮服务,中餐厅,特色/地方风味餐厅,121.508583,31.280018,"121.504179,31.282041",121.504179,31.282041,POINT (121.504179 31.282041)
B0FFIREDAM,光头羊肉汤·阿里王牛蛙,",杨浦区,大连路1550号光头羊肉汤",餐饮服务;中餐厅;中餐厅,050100,310000,上海市,21,上海市,310110,杨浦区,四平路,"121.502910,31.273789",15551819567,餐饮服务,中餐厅,中餐厅,121.50291,31.273789,"121.498486,31.275797",121.498486,31.275797,POINT (121.498486 31.275797)
B0H1ML1SUB,鱼籽村秘制拌饭(同济大学店),四平路同济联合广场2楼麦当劳旁,餐饮服务;中餐厅;中餐厅,050100,310000,上海市,21,上海市,310110,杨浦区,四平路,"121.507507,31.281492",[],餐饮服务,中餐厅,中餐厅,121.507507,31.281492,"121.503099,31.283511",121.503099,31.283511,POINT (121.503099 31.283511)
B0FFG0ZG4K,牛朋牛奶棚(四平路),四平路933号(地铁四平路站1号口处),购物服务;综合市场;农副产品市场|餐饮服务;糕饼店;糕饼店,060703|050800,310000,上海市,21,上海市,310110,杨浦区,四平路,"121.501788,31.275462",021-55883513,购物服务,综合市场,农副产品市场|餐饮服务,121.501788,31.275462,"121.497359,31.277466",121.497359,31.277466,POINT (121.497359 31.277466)
B0IGBZL0KA,旬隐日料,[],餐饮服务;外国餐厅;日本料理,050202,310000,上海市,21,上海市,310110,杨浦区,四平路,"121.507748,31.281292",[],餐饮服务,外国餐厅,日本料理,121.507748,31.281292,"121.50334,31.283312",121.50334,31.283312,POINT (121.50334 31.283312)
B0FFHOOLOF,鼎尊胡椒猪肚鸡(五角场店),黄兴路2009-7号,餐饮服务;中餐厅;火锅店,050117,310000,上海市,21,上海市,310110,杨浦区,四平路,"121.517845,31.294068",18616259355,餐饮服务,中餐厅,火锅店,121.517845,31.294068,"121.513472,31.296112",121.513472,31.296112,POINT (121.513472 31.296112)
B0FFHKRIOQ,河南面馆(鞍山支路店),鞍山支路21号,餐饮服务;中餐厅;中餐厅,050100,310000,上海市,21,上海市,310110,杨浦区,四平路,"121.509755,31.280483",[],餐饮服务,中餐厅,中餐厅,121.509755,31.280483,"121.505355,31.282509",121.505355,31.282509,POINT (121.505355 31.282509)
B0FFGBN26E,化隆拉面(密云路店),密云路416号,餐饮服务;中餐厅;清真菜馆,050121,310000,上海市,21,上海市,310110,杨浦区,四平路,"121.496647,31.278254",13761263747,餐饮服务,中餐厅,清真菜馆,121.496647,31.278254,"121.4922,31.280242",121.4922,31.280242,POINT (121.4922 31.280242)
B0H0GHE3QD,ChowChow松狮咖啡,国权路333弄18号-7商铺,餐饮服务;咖啡厅;咖啡厅,050500,310000,上海市,21,上海市,310110,杨浦区,四平路,"121.507706,31.290448",13472516798,餐饮服务,咖啡厅,咖啡厅,121.507706,31.290448,"121.503297,31.292464",121.503297,31.292464,POINT (121.503297 31.292464)
B0H2FSKCZ6,泰吉吉·泰式大排档,政本路137号,餐饮服务;外国餐厅;日本料理,050202,310000,上海市,21,上海市,310110,杨浦区,四平路,"121.515338,31.290150",021-65277797,餐饮服务,外国餐厅,日本料理,121.515338,31.29015,"121.510957,31.292189",121.510957,31.292189,POINT (121.510957 31.292189)
B0FFFQR1W6,和家乐1号饭堂(国权店),国权路29号,餐饮服务;中餐厅;中餐厅,050100,310000,上海市,21,上海市,310110,杨浦区,四平路,"121.519228,31.288677",13362199519,餐饮服务,中餐厅,中餐厅,121.519228,31.288677,"121.51486,31.290727",121.51486,31.290727,POINT (121.51486 31.290727)
B0HAKRKLJZ,烧烤羊蝎子,抚顺路松鹤公园西南侧约30米,餐饮服务;中餐厅;中餐厅,050100,310000,上海市,21,上海市,310110,杨浦区,四平路,"121.513652,31.279399",[],餐饮服务,中餐厅,中餐厅,121.513652,31.279399,"121.509266,31.281437",121.509266,31.281437,POINT (121.509266 31.281437)
B0FFHUYZ17,精点双皮馒头(杨浦店),彰武路65号,餐饮服务;中餐厅;特色/地方风味餐厅,050118,310000,上海市,21,上海市,310110,杨浦区,四平路,"121.510131,31.281193",021-65981314,餐饮服务,中餐厅,特色/地方风味餐厅,121.510131,31.281193,"121.505732,31.28322",121.505732,31.28322,POINT (121.505732 31.28322)
B0FFIY8AB6,哈尔滨烤冷面(赤峰路店),赤峰路57号,餐饮服务;餐饮相关场所;餐饮相关,050000,310000,上海市,21,上海市,310110,杨浦区,四平路,"121.502190,31.279555",[],餐饮服务,餐饮相关场所,餐饮相关,121.50219,31.279555,"121.497763,31.281559",121.497763,31.281559,POINT (121.497763 31.281559)
B0HUZ5HP1I,丘田醍醐味,彰武路65号-14,餐饮服务;糕饼店;糕饼店,050800,310000,上海市,21,上海市,310110,杨浦区,四平路,"121.510623,31.281199",18816572089,餐饮服务,糕饼店,糕饼店,121.510623,31.281199,"121.506226,31.283227",121.506226,31.283227,POINT (121.506226 31.283227)
B0FFG0C2NH,复旦教工食堂,国权路600号复旦大学经济学院内,餐饮服务;中餐厅;中餐厅,050100,310000,上海市,21,上海市,310110,杨浦区,四平路,"121.504929,31.294694",021-65642467,餐饮服务,中餐厅,中餐厅,121.504929,31.294694,"121.50051,31.2967",121.50051,31.2967,POINT (121.50051 31.2967)
B0FFKQWQWI,陕老顺(同济大学店),彰武路48号同济联合广场E座,餐饮服务;中餐厅;中餐厅,050100,310000,上海市,21,上海市,310110,杨浦区,四平路,"121.507919,31.281625",13764639655,餐饮服务,中餐厅,中餐厅,121.507919,31.281625,"121.503512,31.283645",121.503512,31.283645,POINT (121.503512 31.283645)
B0FFF4HV2G,吴江路生煎(鞍山路店),鞍山支路11号鞍山支路菜场,餐饮服务;餐饮相关场所;餐饮相关,050000,310000,上海市,21,上海市,310110,杨浦区,四平路,"121.509518,31.280022",15021936851,餐饮服务,餐饮相关场所,餐饮相关,121.509518,31.280022,"121.505117,31.282048",121.505117,31.282048,POINT (121.505117 31.282048)
B0HU5LQM35,瑞幸咖啡(四平路店),四平路苏宁生活广场,餐饮服务;咖啡厅;咖啡厅,050500,310000,上海市,21,上海市,310110,杨浦区,四平路,"121.514611,31.298802",[],餐饮服务,咖啡厅,咖啡厅,121.514611,31.298802,"121.510226,31.300835",121.510226,31.300835,POINT (121.510226 31.300835)
B0FFHWIBDV,得胜音响投影仪体验店,邯郸路365号颐高2层C206室,购物服务;家电电子卖场;数码电子,060306,310000,上海市,21,上海市,310110,杨浦区,四平路,"121.508725,31.297515",021-55661321;13482486010,购物服务,家电电子卖场,数码电子,121.508725,31.297515,"121.50432,31.299531",121.50432,31.299531,POINT (121.50432 31.299531)
B0GDRRBX5D,舞台灯光音响租赁公司,鞍山四村第三小区62号,公司企业;公司;商业贸易,170207,310000,上海市,21,上海市,310110,杨浦区,四平路,"121.508739,31.274770",15021572978,公司企业,公司,商业贸易,121.508739,31.27477,"121.504336,31.276795",121.504336,31.276795,POINT (121.504336 31.276795)
B0FFK1SPWE,上海同音灯光音响工程有限公司,彰武路同济联合广场-C号楼,公司企业;公司;公司,170200,310000,上海市,21,上海市,310110,杨浦区,四平路,"121.507496,31.281349",[],公司企业,公司,公司,121.507496,31.281349,"121.503088,31.283368",121.503088,31.283368,POINT (121.503088 31.283368)
B00152944E,胜利村邮政所,大连路1558-2号,生活服务;邮局;邮局,070400,310000,上海市,21,上海市,310110,杨浦区,四平路,"121.502676,31.274030",021-65138081,生活服务,邮局,邮局,121.502676,31.27403,"121.498251,31.276038",121.498251,31.276038,POINT (121.498251 31.276038)
B0FFM6CHXE,驿佳宾馆,大连路与辽源西路交叉口东北约60米,住宿服务;宾馆酒店;宾馆酒店,100100,310000,上海市,21,上海市,310110,杨浦区,四平路,"121.506703,31.269118",[],住宿服务,宾馆酒店,宾馆酒店,121.506703,31.269118,"121.502293,31.27114",121.502293,31.27114,POINT (121.502293 31.27114)
B0IBHSEKAP,锦江之星旅馆(同济大学店)地面停车点(入口),国康路与四平路辅路交叉口西北约80米,交通设施服务;停车场;停车场入口,150907,310000,上海市,21,上海市,310110,杨浦区,四平路,"121.506956,31.285141",[],交通设施服务,停车场,停车场入口,121.506956,31.285141,"121.502545,31.287157",121.502545,31.287157,POINT (121.502545 31.287157)
B0FFKTJ642,莱仪堂养生会馆(国定店),五角场街道国定路115号,医疗保健服务;医疗保健服务场所;医疗保健服务场所,090000,310000,上海市,21,上海市,310110,杨浦区,四平路,"121.514352,31.293853",021-55581160,医疗保健服务,医疗保健服务场所,医疗保健服务场所,121.514352,31.293853,"121.509967,31.295887",121.509967,31.295887,POINT (121.509967 31.295887)
B0HA3A2TT4,上海市杨浦区绅度保健按摩店,许昌路1388号,生活服务;洗浴推拿场所;洗浴推拿场所,071400,310000,上海市,21,上海市,310110,杨浦区,四平路,"121.515572,31.269269",[],生活服务,洗浴推拿场所,洗浴推拿场所,121.515572,31.269269,"121.511193,31.271317",121.511193,31.271317,POINT (121.511193 31.271317)
B0IBKMH72M,小江足道,[],生活服务;洗浴推拿场所;洗浴推拿场所,071400,310000,上海市,21,上海市,310110,杨浦区,四平路,"121.512110,31.276390",[],生活服务,洗浴推拿场所,洗浴推拿场所,121.51211,31.27639,"121.507718,31.278425",121.507718,31.278425,POINT (121.507718 31.278425)
B0FFFZHU02,天益宾馆停车场,四平路1805号天益宾馆,交通设施服务;停车场;公共停车场,150904,310000,上海市,21,上海市,310110,杨浦区,四平路,"121.509463,31.289346",[],交通设施服务,停车场,公共停车场,121.509463,31.289346,"121.505061,31.291368",121.505061,31.291368,POINT (121.505061 31.291368)
B0IBKZH80K,汉旺酒店,[],住宿服务;宾馆酒店;宾馆酒店,100100,310000,上海市,21,上海市,310110,杨浦区,四平路,"121.507709,31.273398",[],住宿服务,宾馆酒店,宾馆酒店,121.507709,31.273398,"121.503302,31.275421",121.503302,31.275421,POINT (121.503302 31.275421)
B0IBKHGUW5,格林酒店,[],住宿服务;宾馆酒店;宾馆酒店,100100,310000,上海市,21,上海市,310110,杨浦区,四平路,"121.511578,31.276332",[],住宿服务,宾馆酒店,宾馆酒店,121.511578,31.276332,"121.507185,31.278365",121.507185,31.278365,POINT (121.507185 31.278365)
B0FFF2U3S2,天益宾馆4号楼,四平路1805号,地名地址信息;门牌信息;楼栋号,190403,310000,上海市,21,上海市,310110,杨浦区,四平路,"121.508829,31.289416",[],地名地址信息,门牌信息,楼栋号,121.508829,31.289416,"121.504425,31.291436",121.504425,31.291436,POINT (121.504425 31.291436)
B0HK15BF8H,格林酒店集团,鞍山路鞍山四村第一小区,公司企业;公司;公司,170200,310000,上海市,21,上海市,310110,杨浦区,四平路,"121.511491,31.276420",[],公司企业,公司,公司,121.511491,31.27642,"121.507097,31.278453",121.507097,31.278453,POINT (121.507097 31.278453)
B0FFG8HE3W,朋友足浴,鞍山路锦西路鞍山四村4号1室,生活服务;洗浴推拿场所;洗浴推拿场所,071400,310000,上海市,21,上海市,310110,杨浦区,四平路,"121.510925,31.275840",[],生活服务,洗浴推拿场所,洗浴推拿场所,121.510925,31.27584,"121.506529,31.277872",121.506529,31.277872,POINT (121.506529 31.277872)
B0FFHWT687,华仔足疗,抚顺路317号,生活服务;洗浴推拿场所;洗浴推拿场所,071400,310000,上海市,21,上海市,310110,杨浦区,四平路,"121.511262,31.278436",[],生活服务,洗浴推拿场所,洗浴推拿场所,121.511262,31.278436,"121.506867,31.280467",121.506867,31.280467,POINT (121.506867 31.280467)
B0FFG95DL8,园中酒店公寓,大连路1546号,住宿服务;宾馆酒店;宾馆酒店,100100,310000,上海市,21,上海市,310110,杨浦区,四平路,"121.504459,31.272918",[],住宿服务,宾馆酒店,宾馆酒店,121.504459,31.272918,"121.50004,31.274931",121.50004,31.274931,POINT (121.50004 31.274931)
B0FFGJO8WB,锦江都城白玉兰宾馆宴会厅,四平路1251号,住宿服务;住宿服务相关;住宿服务相关,100000,310000,上海市,21,上海市,310110,杨浦区,四平路,"121.507386,31.285077",[],住宿服务,住宿服务相关,住宿服务相关,121.507386,31.285077,"121.502977,31.287094",121.502977,31.287094,POINT (121.502977 31.287094)
B00155DC7Y,舒而雅足道(四平路店),国定路142号6,生活服务;洗浴推拿场所;洗浴推拿场所,071400,310000,上海市,21,上海市,310110,杨浦区,四平路,"121.514612,31.294136",021-55056398,生活服务,洗浴推拿场所,洗浴推拿场所,121.514612,31.294136,"121.510228,31.296171",121.510228,31.296171,POINT (121.510228 31.296171)
B0FFIMT575,天益宾馆B栋,四平路1805号,地名地址信息;门牌信息;楼栋号,190403,310000,上海市,21,上海市,310110,杨浦区,四平路,"121.509208,31.288950",[],地名地址信息,门牌信息,楼栋号,121.509208,31.28895,"121.504805,31.290971",121.504805,31.290971,POINT (121.504805 31.290971)
B0FFILI0FJ,天益宾馆C栋,四平路1805号,地名地址信息;门牌信息;楼栋号,190403,310000,上海市,21,上海市,310110,杨浦区,四平路,"121.508550,31.288756",[],地名地址信息,门牌信息,楼栋号,121.50855,31.288756,"121.504145,31.290775",121.504145,31.290775,POINT (121.504145 31.290775)
B0FFILIK21,天益宾馆A栋,四平路1805号,地名地址信息;门牌信息;楼栋号,190403,310000,上海市,21,上海市,310110,杨浦区,四平路,"121.509263,31.289233",[],地名地址信息,门牌信息,楼栋号,121.509263,31.289233,"121.50486,31.291254",121.50486,31.291254,POINT (121.50486 31.291254)
B0FFHO2ADH,天益宾馆地面停车场,四平路1805号天益宾馆,交通设施服务;停车场;公共停车场,150904,310000,上海市,21,上海市,310110,杨浦区,四平路,"121.508508,31.289634",[],交通设施服务,停车场,公共停车场,121.508508,31.289634,"121.504102,31.291653",121.504102,31.291653,POINT (121.504102 31.291653)
B0FFGEKAMX,上海财富大酒店-洗手间,邯郸路399号(近国定路),公共设施;公共厕所;公共厕所,200300,310000,上海市,21,上海市,310110,杨浦区,四平路,"121.511204,31.297722",[],公共设施,公共厕所,公共厕所,121.511204,31.297722,"121.506807,31.299745",121.506807,31.299745,POINT (121.506807 31.299745)
B0FFHDMBBN,财富大酒店(西北门),邯郸路399号,通行设施;临街院门;临街院门,991400,310000,上海市,21,上海市,310110,杨浦区,四平路,"121.510975,31.298286",[],通行设施,临街院门,临街院门,121.510975,31.298286,"121.506578,31.300309",121.506578,31.300309,POINT (121.506578 31.300309)
B0FFGBBXGX,天益宾馆7号楼,四平路1805号,地名地址信息;门牌信息;楼栋号,190403,310000,上海市,21,上海市,310110,杨浦区,四平路,"121.508989,31.289649",[],地名地址信息,门牌信息,楼栋号,121.508989,31.289649,"121.504585,31.291669",121.504585,31.291669,POINT (121.504585 31.291669)
B0FFG1W02S,上海财富大酒店(正门),邯郸路399号(近国定路)财富大酒店附近,通行设施;通行设施;通行设施,990000,310000,上海市,21,上海市,310110,杨浦区,四平路,"121.511150,31.297823",[],通行设施,通行设施,通行设施,121.51115,31.297823,"121.506753,31.299846",121.506753,31.299846,POINT (121.506753 31.299846)
B0FFK2VUVO,国医整脊馆(杨浦店),四平路2500号金岛大厦1405室,生活服务;洗浴推拿场所;洗浴推拿场所,071400,310000,上海市,21,上海市,310110,杨浦区,四平路,"121.515684,31.298811",15921817548,生活服务,洗浴推拿场所,洗浴推拿场所,121.515684,31.298811,"121.511303,31.300847",121.511303,31.300847,POINT (121.511303 31.300847)
B0FFHOF7JC,正宗扬州扦脚(密云路),四平街道密云路436号,生活服务;洗浴推拿场所;洗浴推拿场所,071400,310000,上海市,21,上海市,310110,杨浦区,四平路,"121.496469,31.278891",[],生活服务,洗浴推拿场所,洗浴推拿场所,121.496469,31.278891,"121.492021,31.280878",121.492021,31.280878,POINT (121.492021 31.280878)
B0FFGU865O,指压推拿,四平路与国定路交叉口西南50米,生活服务;洗浴推拿场所;洗浴推拿场所,071400,310000,上海市,21,上海市,310110,杨浦区,四平路,"121.517208,31.293939",[],生活服务,洗浴推拿场所,洗浴推拿场所,121.517208,31.293939,"121.512833,31.295981",121.512833,31.295981,POINT (121.512833 31.295981)
B0IBKUHUCM,陶陶保健按摩,[],生活服务;洗浴推拿场所;洗浴推拿场所,071400,310000,上海市,21,上海市,310110,杨浦区,四平路,"121.515161,31.266688",[],生活服务,洗浴推拿场所,洗浴推拿场所,121.515161,31.266688,"121.510781,31.268736",121.510781,31.268736,POINT (121.510781 31.268736)
B0IBKAHSPK,艾灸馆,[],医疗保健服务;医疗保健服务场所;医疗保健服务场所,090000,310000,上海市,21,上海市,310110,杨浦区,四平路,"121.515320,31.276945",[],医疗保健服务,医疗保健服务场所,医疗保健服务场所,121.51532,31.276945,"121.51094,31.278989",121.51094,31.278989,POINT (121.51094 31.278989)
B0IBKYGLTU,温馨足浴,[],生活服务;洗浴推拿场所;洗浴推拿场所,071400,310000,上海市,21,上海市,310110,杨浦区,四平路,"121.514150,31.293930",[],生活服务,洗浴推拿场所,洗浴推拿场所,121.51415,31.29393,"121.509764,31.295964",121.509764,31.295964,POINT (121.509764 31.295964)
B0HU9S52MP,新起点酒店公寓,国权路与政仁路交叉口东约140米,住宿服务;宾馆酒店;经济型连锁酒店,100105,310000,上海市,21,上海市,310110,杨浦区,四平路,"121.519131,31.288527",[],住宿服务,宾馆酒店,经济型连锁酒店,121.519131,31.288527,"121.514763,31.290577",121.514763,31.290577,POINT (121.514763 31.290577)
B0H27L1ISP,涛创体育篮球乒乓球培训,大连路与阜新路交叉口东南约80米,科教文化服务;培训机构;培训机构,141400,310000,上海市,21,上海市,310110,杨浦区,四平路,"121.504509,31.272522",[],科教文化服务,培训机构,培训机构,121.504509,31.272522,"121.50009,31.274536",121.50009,31.274536,POINT (121.50009 31.274536)
B0HKVC677K,OT台球酒吧,大连路1546号b1层,体育休闲服务;娱乐场所;酒吧,080304,310000,上海市,21,上海市,310110,杨浦区,四平路,"121.504095,31.272888",19946273372,体育休闲服务,娱乐场所,酒吧,121.504095,31.272888,"121.499675,31.2749",121.499675,31.2749,POINT (121.499675 31.2749)
B0I6ZHIIAC,上海五角场智选假日酒店地下停车点,国顺路与黄兴路交叉口西约100米,交通设施服务;停车场;公共停车场,150904,310000,上海市,21,上海市,310110,杨浦区,四平路,"121.518415,31.291203",[],交通设施服务,停车场,公共停车场,121.518415,31.291203,"121.514044,31.29325",121.514044,31.29325,POINT (121.514044 31.29325)
B00156ZNXO,国中酒店公寓2号楼,阜新路20弄2号,地名地址信息;门牌信息;楼栋号,190403,310000,上海市,21,上海市,310110,杨浦区,四平路,"121.504849,31.272740",[],地名地址信息,门牌信息,楼栋号,121.504849,31.27274,"121.500432,31.274755",121.500432,31.274755,POINT (121.500432 31.274755)
B0I6ZHFQ6A,上海五角场智选假日酒店停车点(出口),国顺路与黄兴路交叉口西南约100米,交通设施服务;停车场;停车场出口,150908,310000,上海市,21,上海市,310110,杨浦区,四平路,"121.518470,31.291080",[],交通设施服务,停车场,停车场出口,121.51847,31.29108,"121.5141,31.293127",121.5141,31.293127,POINT (121.5141 31.293127)
B0I6ZH7DMZ,上海五角场智选假日酒店地下停车点(出入口),国顺路与黄兴路交叉口西约100米,交通设施服务;停车场;停车场出入口,150909,310000,上海市,21,上海市,310110,杨浦区,四平路,"121.518415,31.291203",[],交通设施服务,停车场,停车场出入口,121.518415,31.291203,"121.514044,31.29325",121.514044,31.29325,POINT (121.514044 31.29325)
B0FFHVWJEQ,上海鑫兴酒店设备工程有限公司,打虎山路128号,公司企业;公司;公司,170200,310000,上海市,21,上海市,310110,杨浦区,四平路,"121.507221,31.273872",[],公司企业,公司,公司,121.507221,31.273872,"121.502812,31.275893",121.502812,31.275893,POINT (121.502812 31.275893)
B0HKOSIFWH,同济君禧大酒店地下停车场(出入口),彰武路与阜新路交叉口西约100米,交通设施服务;停车场;停车场出入口,150909,310000,上海市,21,上海市,310110,杨浦区,四平路,"121.508141,31.281040",[],交通设施服务,停车场,停车场出入口,121.508141,31.28104,"121.503735,31.283061",121.503735,31.283061,POINT (121.503735 31.283061)
B0FFIL0NM9,海泰大酒店地下停车库,四平路1128号,交通设施服务;停车场;停车场相关,150900,310000,上海市,21,上海市,310110,杨浦区,四平路,"121.505181,31.278046",[],交通设施服务,停车场,停车场相关,121.505181,31.278046,"121.500764,31.280059",121.500764,31.280059,POINT (121.500764 31.280059)
B0G274EERJ,龙元网咖棋牌,邯郸路365号颐高数码广场3楼,体育休闲服务;娱乐场所;棋牌室,080306,310000,上海市,21,上海市,310110,杨浦区,四平路,"121.508023,31.297360",021-52906986,体育休闲服务,娱乐场所,棋牌室,121.508023,31.29736,"121.503615,31.299374",121.503615,31.299374,POINT (121.503615 31.299374)
B00155MORP,晶晶网咖,政肃路55号二楼,体育休闲服务;娱乐场所;网吧,080308,310000,上海市,21,上海市,310110,杨浦区,四平路,"121.506222,31.294323",17521777078,体育休闲服务,娱乐场所,网吧,121.506222,31.294323,"121.501808,31.296333",121.501808,31.296333,POINT (121.501808 31.296333)
B0FFJXBXKL,金时代顺风大酒店宴会厅(四平路店),四平路2500号东方商厦5楼,餐饮服务;中餐厅;中餐厅,050100,310000,上海市,21,上海市,310110,杨浦区,四平路,"121.515710,31.298841",[],餐饮服务,中餐厅,中餐厅,121.51571,31.298841,"121.511329,31.300877",121.511329,31.300877,POINT (121.511329 31.300877)
B0H2N5G7FQ,上海复旦皇冠假日酒店地下停车场(出入口)(建设中),国权路579号上海复旦皇冠假日酒店,交通设施服务;停车场;停车场出入口,150909,310000,上海市,21,上海市,310110,杨浦区,四平路,"121.502706,31.294992",[],交通设施服务,停车场,停车场出入口,121.502706,31.294992,"121.498279,31.296991",121.498279,31.296991,POINT (121.498279 31.296991)
B0FFGHZHYA,紧急避难场所(智选假日酒店西南),黄兴路1729号上海五角场智选假日酒店1层,公共设施;紧急避难场所;紧急避难场所,200400,310000,上海市,21,上海市,310110,杨浦区,四平路,"121.518920,31.290270",[],公共设施,紧急避难场所,紧急避难场所,121.51892,31.29027,"121.514551,31.292319",121.514551,31.292319,POINT (121.514551 31.292319)
B0HAKNF78L,睦邻小厨城市饭堂,国权路天益宾馆(四平路店),餐饮服务;中餐厅;中餐厅,050100,310000,上海市,21,上海市,310110,杨浦区,四平路,"121.509413,31.289806",[],餐饮服务,中餐厅,中餐厅,121.509413,31.289806,"121.505011,31.291827",121.505011,31.291827,POINT (121.505011 31.291827)
B0HRHU3CSE,老绍兴农家小炒,国权路天益宾馆(四平路店),餐饮服务;中餐厅;中餐厅,050100,310000,上海市,21,上海市,310110,杨浦区,四平路,"121.509119,31.289986",[],餐饮服务,中餐厅,中餐厅,121.509119,31.289986,"121.504716,31.292006",121.504716,31.292006,POINT (121.504716 31.292006)
B0H17S5WKO,来伊份(国权路地铁站店),国权路天益宾馆(四平路店),购物服务;专卖店;专营店,061200,310000,上海市,21,上海市,310110,杨浦区,四平路,"121.509713,31.289754",[],购物服务,专卖店,专营店,121.509713,31.289754,"121.505312,31.291776",121.505312,31.291776,POINT (121.505312 31.291776)
B0HGRDOQKO,国中公寓北停车场,阜新路20弄1-2号国中酒店公寓,交通设施服务;停车场;公共停车场,150904,310000,上海市,21,上海市,310110,杨浦区,四平路,"121.504660,31.273450",[],交通设施服务,停车场,公共停车场,121.50466,31.27345,"121.500242,31.275464",121.500242,31.275464,POINT (121.500242 31.275464)
B0FFI6HJCR,上海市动物疫病预防控制中心城区动物防疫点(抚顺路店),抚顺路206号(近江浦路),医疗保健服务;动物医疗场所;动物医疗场所,090700,310000,上海市,21,上海市,310110,杨浦区,四平路,"121.516304,31.280928",021-33776332,医疗保健服务,动物医疗场所,动物医疗场所,121.516304,31.280928,"121.511927,31.282973",121.511927,31.282973,POINT (121.511927 31.282973)
B0FFFS7CLJ,四平科技公园-中心广场,内环高架路四平科技公园,风景名胜;公园广场;城市广场,110105,310000,上海市,21,上海市,310110,杨浦区,四平路,"121.507270,31.287128",[],风景名胜,公园广场,城市广场,121.50727,31.287128,"121.50286,31.289144",121.50286,31.289144,POINT (121.50286 31.289144)
B0FFJJ4OWG,街电(唐宫海鲜舫白玉兰店),四平路1251号白玉兰宾馆2层(中山北二路、同济大学),生活服务;共享设备;充电宝,072101,310000,上海市,21,上海市,310110,杨浦区,四平路,"121.507422,31.285294",[],生活服务,共享设备,充电宝,121.507422,31.285294,"121.503013,31.287311",121.503013,31.287311,POINT (121.503013 31.287311)
B0FFIXS44I,国权路300弄8号楼,国顺路国权小区(天益宾馆西北100米),地名地址信息;门牌信息;楼栋号,190403,310000,上海市,21,上海市,310110,杨浦区,四平路,"121.509189,31.290615",[],地名地址信息,门牌信息,楼栋号,121.509189,31.290615,"121.504786,31.292635",121.504786,31.292635,POINT (121.504786 31.292635)
B0FFIXQET5,国权路300弄6号楼,国顺路国权小区(天益宾馆北50米),地名地址信息;门牌信息;楼栋号,190403,310000,上海市,21,上海市,310110,杨浦区,四平路,"121.509342,31.290568",[],地名地址信息,门牌信息,楼栋号,121.509342,31.290568,"121.504939,31.292589",121.504939,31.292589,POINT (121.504939 31.292589)
B0FFMH322V,美佳公寓,政本路与国权路交叉口南约80米,住宿服务;宾馆酒店;宾馆酒店,100100,310000,上海市,21,上海市,310110,杨浦区,四平路,"121.515497,31.286964",[],住宿服务,宾馆酒店,宾馆酒店,121.515497,31.286964,"121.511117,31.289004",121.511117,31.289004,POINT (121.511117 31.289004)
B00155KVW2,上海海关企业监管处,政仁路81号上海海关,政府机构及社会团体;政府机关;省直辖市级政府及事业单位,130102,310000,上海市,21,上海市,310110,杨浦区,四平路,"121.517683,31.28704",[],政府机构及社会团体,政府机关,省直辖市级政府及事业单位,121.517683,31.28704,"121.51331,31.289087",121.51331,31.289087,POINT (121.51331 31.289087)
B0FFHSS54I,上海海关企业稽查处,政仁路81号,政府机构及社会团体;政府机关;省直辖市级政府及事业单位,130102,310000,上海市,21,上海市,310110,杨浦区,四平路,"121.517614,31.286964",[],政府机构及社会团体,政府机关,省直辖市级政府及事业单位,121.517614,31.286964,"121.513241,31.28901",121.513241,31.28901,POINT (121.513241 31.28901)
B001559OX4,国中公寓(西北门),阜新路20弄之1-2号,通行设施;临街院门;临街院门,991400,310000,上海市,21,上海市,310110,杨浦区,四平路,"121.504526,31.273324",[],通行设施,临街院门,临街院门,121.504526,31.273324,"121.500107,31.275337",121.500107,31.275337,POINT (121.500107 31.275337)
B0HGRDN0X5,国中公寓北停车场(出入口),阜新路20弄1-2号国中酒店公寓国中公寓地上停车场,交通设施服务;停车场;停车场出入口,150909,310000,上海市,21,上海市,310110,杨浦区,四平路,"121.504537,31.273339",[],交通设施服务,停车场,停车场出入口,121.504537,31.273339,"121.500119,31.275353",121.500119,31.275353,POINT (121.500119 31.275353)
B0FFGDF7TA,停车场(出入口),国顺路138号附近,交通设施服务;停车场;停车场出入口,150909,310000,上海市,21,上海市,310110,杨浦区,四平路,"121.513859,31.290969",[],交通设施服务,停车场,停车场出入口,121.513859,31.290969,"121.509472,31.293003",121.509472,31.293003,POINT (121.509472 31.293003)
B0FFI9O3N9,iMirror自拍馆,阜新路20弄国中酒店公寓2号楼21楼E座(近大连路),生活服务;摄影冲印店;摄影冲印,071300,310000,上海市,21,上海市,310110,杨浦区,四平路,"121.504616,31.273567",021-55079663,生活服务,摄影冲印店,摄影冲印,121.504616,31.273567,"121.500198,31.275581",121.500198,31.275581,POINT (121.500198 31.275581)
B0FFFFQ06B,上海杨浦区世纪养老院工会委员会,政修路270号,政府机构及社会团体;社会团体;社会团体相关,130400,310000,上海市,21,上海市,310110,杨浦区,四平路,"121.503129,31.290129",021-65110603,政府机构及社会团体,社会团体,社会团体相关,121.503129,31.290129,"121.498704,31.292131",121.498704,31.292131,POINT (121.498704 31.292131)
B0FFG5A3HY,同济大学四平路校区中国工程机械学会路面与压实机械分会,四平路1239号同济大学四平路校区机械馆,政府机构及社会团体;社会团体;行业协会,130407,310000,上海市,21,上海市,310110,杨浦区,四平路,"121.500685,31.286666",[],政府机构及社会团体,社会团体,行业协会,121.500685,31.286666,"121.496251,31.288662",121.496251,31.288662,POINT (121.496251 31.288662)
B0FFH1128R,五角场街道慈善超市,国定路39号,政府机构及社会团体;社会团体;慈善机构,130408,310000,上海市,21,上海市,310110,杨浦区,四平路,"121.516242,31.293665",[],政府机构及社会团体,社会团体,慈善机构,121.516242,31.293665,"121.511864,31.295705",121.511864,31.295705,POINT (121.511864 31.295705)
B0FFIQAU2R,四平路街道慈善超市,铁岭路96号,政府机构及社会团体;政府及社会团体相关;政府及社会团体相关,130000,310000,上海市,21,上海市,310110,杨浦区,四平路,"121.512539,31.280284",13585710432;15821613815,政府机构及社会团体,政府及社会团体相关,政府及社会团体相关,121.512539,31.280284,"121.508149,31.282318",121.508149,31.282318,POINT (121.508149 31.282318)
B0FFH09BFS,复旦大学爱心公益站,政肃路复旦大学游泳池,政府机构及社会团体;社会团体;慈善机构,130408,310000,上海市,21,上海市,310110,杨浦区,四平路,"121.502457,31.292689",[],政府机构及社会团体,社会团体,慈善机构,121.502457,31.292689,"121.498029,31.294688",121.498029,31.294688,POINT (121.498029 31.294688)
B0FFHUKHGM,四平工商所消费者权益保护铁岭路50弄居委会联络点,抚顺路铁岭路50弄社区,政府机构及社会团体;社会团体;社会团体相关,130400,310000,上海市,21,上海市,310110,杨浦区,四平路,"121.515422,31.279737",[],政府机构及社会团体,社会团体,社会团体相关,121.515422,31.279737,"121.511042,31.28178",121.511042,31.28178,POINT (121.511042 31.28178)
B0FFF3AQUR,杨浦区总工会职工援助中心四平分中心,鞍山五村14号,政府机构及社会团体;社会团体;慈善机构,130408,310000,上海市,21,上海市,310110,杨浦区,四平路,"121.504509,31.276737",[],政府机构及社会团体,社会团体,慈善机构,121.504509,31.276737,"121.50009,31.278749",121.50009,31.278749,POINT (121.50009 31.278749)
B00154TJS6,中国教育工会复旦大学委员会,国年路275弄7号,科教文化服务;科教文化场所;科教文化场所,140000,310000,上海市,21,上海市,310110,杨浦区,四平路,"121.505307,31.294633",[],科教文化服务,科教文化场所,科教文化场所,121.505307,31.294633,"121.500889,31.29664",121.500889,31.29664,POINT (121.500889 31.29664)
B0FFF3AQPW,四平工商所消费者权益保护鞍山三村居委会联络点,铁岭路鞍山三村住宅小区,政府机构及社会团体;社会团体;消费者协会,130406,310000,上海市,21,上海市,310110,杨浦区,四平路,"121.513040,31.278195",[],政府机构及社会团体,社会团体,消费者协会,121.51304,31.278195,"121.508652,31.280232",121.508652,31.280232,POINT (121.508652 31.280232)
B0FFHRXDXP,经常性社会捐助接收点,铁岭路113-1号附近,政府机构及社会团体;社会团体;慈善机构,130408,310000,上海市,21,上海市,310110,杨浦区,四平路,"121.512522,31.280288",[],政府机构及社会团体,社会团体,慈善机构,121.512522,31.280288,"121.508132,31.282322",121.508132,31.282322,POINT (121.508132 31.282322)
B0FFG0389C,上海同济高廷耀环保科技发展基金会,密云路588号同济大学,政府机构及社会团体;社会团体;慈善机构,130408,310000,上海市,21,上海市,310110,杨浦区,四平路,"121.496903,31.284584",[],政府机构及社会团体,社会团体,慈善机构,121.496903,31.284584,"121.492456,31.28657",121.492456,31.28657,POINT (121.492456 31.28657)
B0FFHO5EMI,中国宋庆龄基金会儿童教育发展基金(上海办公室),中山北二路彰武路120弄小区北侧约70米,政府机构及社会团体;社会团体;慈善机构,130408,310000,上海市,21,上海市,310110,杨浦区,四平路,"121.513221,31.284176",[],政府机构及社会团体,社会团体,慈善机构,121.513221,31.284176,"121.508833,31.286211",121.508833,31.286211,POINT (121.508833 31.286211)
B00156NTD3,北茶园居民小区工会委员会,国顺路80弄35号,政府机构及社会团体;社会团体;社会团体相关,130400,310000,上海市,21,上海市,310110,杨浦区,四平路,"121.516493,31.292612",[],政府机构及社会团体,社会团体,社会团体相关,121.516493,31.292612,"121.512116,31.294653",121.512116,31.294653,POINT (121.512116 31.294653)
B0FFKKIULH,来电(五味缘小珺肝串串香大连路店),"大连路1548号(上海教育电视台对面,莱克大厦旁)",生活服务;共享设备;充电宝,072101,310000,上海市,21,上海市,310110,杨浦区,四平路,"121.503484,31.273474",4008845966,生活服务,共享设备,充电宝,121.503484,31.273474,"121.499062,31.275484",121.499062,31.275484,POINT (121.499062 31.275484)
B0FFMAHO6X,段氏龙虾(大连路店),"大连路1548号1层(上海教育电视台正对面,莱克大厦沿街门店)",餐饮服务;中餐厅;火锅店,050117,310000,上海市,21,上海市,310110,杨浦区,四平路,"121.503418,31.273431",18217457627,餐饮服务,中餐厅,火锅店,121.503418,31.273431,"121.498995,31.275441",121.498995,31.275441,POINT (121.498995 31.275441)
B0FFH2ITTZ,上海复新进修学院,国定路335号12层,科教文化服务;学校;成人教育,141205,310000,上海市,21,上海市,310110,杨浦区,四平路,"121.508596,31.297004",18621650502,科教文化服务,学校,成人教育,121.508596,31.297004,"121.50419,31.29902",121.50419,31.29902,POINT (121.50419 31.29902)
B0FFGODR9S,上海纽尔玛营养健康管理进修学院,国权路98号国阳大厦9层,科教文化服务;学校;成人教育,141205,310000,上海市,21,上海市,310110,杨浦区,四平路,"121.515722,31.288168",18001718326,科教文化服务,学校,成人教育,121.515722,31.288168,"121.511342,31.290208",121.511342,31.290208,POINT (121.511342 31.290208)
B0FFF05FGI,上海杨浦区万学进修学校,国定路335号1号楼5003室,科教文化服务;学校;成人教育,141205,310000,上海市,21,上海市,310110,杨浦区,四平路,"121.508747,31.297147",021-55666892,科教文化服务,学校,成人教育,121.508747,31.297147,"121.504342,31.299163",121.504342,31.299163,POINT (121.504342 31.299163)
B00156O92N,上海市复旦求是进修学院,国达路58号(杨浦区复旦科技创业园区3号湾广场),科教文化服务;学校;成人教育,141205,310000,上海市,21,上海市,310110,杨浦区,四平路,"121.508911,31.296031",021-55666303,科教文化服务,学校,成人教育,121.508911,31.296031,"121.504506,31.298048",121.504506,31.298048,POINT (121.504506 31.298048)
B00155QUT9,上海杨浦区复旦附中进修学校,政熙路2号复旦大学,科教文化服务;学校;成人教育,141205,310000,上海市,21,上海市,310110,杨浦区,四平路,"121.506819,31.289301",021-65647956;4008205158,科教文化服务,学校,成人教育,121.506819,31.289301,"121.502407,31.291315",121.502407,31.291315,POINT (121.502407 31.291315)
B00155HHYC,上海开放大学,国顺路288号,科教文化服务;学校;高等院校,141201,310000,上海市,21,上海市,310110,杨浦区,四平路,"121.514181,31.292545",021-25653103;021-25653102;021-55062355,科教文化服务,学校,高等院校,121.514181,31.292545,"121.509795,31.294579",121.509795,31.294579,POINT (121.509795 31.294579)
B0IBCHIEFB,上海市杨浦区台萌进修学校,凤城路101号B幢,科教文化服务;学校;成人教育,141205,310000,上海市,21,上海市,310110,杨浦区,四平路,"121.522743,31.279312",[],科教文化服务,学校,成人教育,121.522743,31.279312,"121.518388,31.281376",121.518388,31.281376,POINT (121.518388 31.281376)
B0FFIGIRE0,10号线同济大学站(1号口),同一路与彰武路交叉口西北50米,交通设施服务;交通服务相关;交通服务相关,150000,310000,上海市,21,上海市,310110,杨浦区,四平路,"121.507149,31.282301",[],交通设施服务,交通服务相关,交通服务相关,121.507149,31.282301,"121.502739,31.284319",121.502739,31.284319,POINT (121.502739 31.284319)
BV11639103,抚顺路(地铁站),18号线,交通设施服务;地铁站;地铁站,150500,310000,上海市,21,上海市,310110,杨浦区,四平路,"121.515793,31.283664",[],交通设施服务,地铁站,地铁站,121.515793,31.283664,"121.511414,31.285707",121.511414,31.285707,POINT (121.511414 31.285707)
B0FFHTV9BO,安悦充电汽车充电站(上海开放大学),政法路与国顺路交叉口东北约160米,汽车服务;充电站;充电站,011100,310000,上海市,21,上海市,310110,杨浦区,四平路,"121.513563,31.292556",[],汽车服务,充电站,充电站,121.513563,31.292556,"121.509175,31.294588",121.509175,31.294588,POINT (121.509175 31.294588)
BV10902751,国康路四平路(公交站),北安跨线,交通设施服务;公交车站;公交车站相关,150700,310000,上海市,21,上海市,310110,杨浦区,四平路,"121.502830,31.286528",[],交通设施服务,公交车站,公交车站相关,121.50283,31.286528,"121.498404,31.288531",121.498404,31.288531,POINT (121.498404 31.288531)
B0FFJL5R2X,比亚迪汽车充电站(财富国际广场金座),国权路39号,汽车服务;充电站;充电站,011100,310000,上海市,21,上海市,310110,杨浦区,四平路,"121.517861,31.287690",[],汽车服务,充电站,充电站,121.517861,31.28769,"121.513489,31.289737",121.513489,31.289737,POINT (121.513489 31.289737)
BV10030782,锦西路打虎山路(公交站),713路;871路,交通设施服务;公交车站;公交车站相关,150700,310000,上海市,21,上海市,310110,杨浦区,四平路,"121.509379,31.274614",[],交通设施服务,公交车站,公交车站相关,121.509379,31.274614,"121.504978,31.276641",121.504978,31.276641,POINT (121.504978 31.276641)
B0GU3CJ1QL,中国石化加油站(暂停营业),"四平路与国泰路交叉路口西南方向,四平路1805号",汽车服务;加油站;加油站,010100,310000,上海市,21,上海市,310110,杨浦区,四平路,"121.509136,31.288265",[],汽车服务,加油站,加油站,121.509136,31.288265,"121.504733,31.290286",121.504733,31.290286,POINT (121.504733 31.290286)
BV10385877,江浦路控江路(公交站),(停运)716路;310路;554路;70路;843路,交通设施服务;公交车站;公交车站相关,150700,310000,上海市,21,上海市,310110,杨浦区,四平路,"121.518906,31.273693",[],交通设施服务,公交车站,公交车站相关,121.518906,31.273693,"121.514539,31.275749",121.514539,31.275749,POINT (121.514539 31.275749)
BV10030771,辽源西路大连路(公交站),103路;14路,交通设施服务;公交车站;公交车站相关,150700,310000,上海市,21,上海市,310110,杨浦区,四平路,"121.507157,31.268533",[],交通设施服务,公交车站,公交车站相关,121.507157,31.268533,"121.502748,31.270556",121.502748,31.270556,POINT (121.502748 31.270556)
BV10030517,中山北二路四平路(公交站),723路,交通设施服务;公交车站;公交车站相关,150700,310000,上海市,21,上海市,310110,杨浦区,四平路,"121.512522,31.284492",[],交通设施服务,公交车站,公交车站相关,121.512522,31.284492,"121.508131,31.286525",121.508131,31.286525,POINT (121.508131 31.286525)
BV10030502,江浦路中山北二路(公交站),(停运)716路;14路;843路,交通设施服务;公交车站;公交车站相关,150700,310000,上海市,21,上海市,310110,杨浦区,四平路,"121.515808,31.283455",[],交通设施服务,公交车站,公交车站相关,121.515808,31.283455,"121.511429,31.285498",121.511429,31.285498,POINT (121.511429 31.285498)
BV10025420,江浦路延吉西路(公交站),(停运)716路;115路;14路;310路;554路;80路;843路;874路,交通设施服务;公交车站;公交车站相关,150700,310000,上海市,21,上海市,310110,杨浦区,四平路,"121.516936,31.280239",[],交通设施服务,公交车站,公交车站相关,121.516936,31.280239,"121.512561,31.282286",121.512561,31.282286,POINT (121.512561 31.282286)
BV10024698,四平路赤峰路(公交站),115路;142路;147路;307路;310路;325路;554路;55路;61路;937路;960路,交通设施服务;公交车站;公交车站相关,150700,310000,上海市,21,上海市,310110,杨浦区,四平路,"121.503880,31.277357",[],交通设施服务,公交车站,公交车站相关,121.50388,31.277357,"121.499459,31.279367",121.499459,31.279367,POINT (121.499459 31.279367)
BV10030516,中山北二路密云路(公交站),723路,交通设施服务;公交车站;公交车站相关,150700,310000,上海市,21,上海市,310110,杨浦区,四平路,"121.501845,31.287522",[],交通设施服务,公交车站,公交车站相关,121.501845,31.287522,"121.497416,31.289522",121.497416,31.289522,POINT (121.497416 31.289522)
BV10030897,鞍山路锦西路(公交站),843路;960路,交通设施服务;公交车站;公交车站相关,150700,310000,上海市,21,上海市,310110,杨浦区,四平路,"121.510925,31.277292",[],交通设施服务,公交车站,公交车站相关,121.510925,31.277292,"121.506529,31.279323",121.506529,31.279323,POINT (121.506529 31.279323)
BV10030770,打虎山路控江路(公交站),103路;14路,交通设施服务;公交车站;公交车站相关,150700,310000,上海市,21,上海市,310110,杨浦区,四平路,"121.509392,31.271524",[],交通设施服务,公交车站,公交车站相关,121.509392,31.271524,"121.504991,31.273553",121.504991,31.273553,POINT (121.504991 31.273553)
B0HB6SKMQL,苏宁生活广场地下停车场(出口),邯郸路589-591号附近,交通设施服务;停车场;停车场出口,150908,310000,上海市,21,上海市,310110,杨浦区,四平路,"121.513820,31.299164",[],交通设施服务,停车场,停车场出口,121.51382,31.299164,"121.509433,31.301195",121.509433,31.301195,POINT (121.509433 31.301195)
B0HGRDOQKP,国中公寓地下停车场(出口),阜新路与大连路交叉口东约80米,交通设施服务;停车场;停车场出口,150908,310000,上海市,21,上海市,310110,杨浦区,四平路,"121.504661,31.273104",[],交通设施服务,停车场,停车场出口,121.504661,31.273104,"121.500243,31.275118",121.500243,31.275118,POINT (121.500243 31.275118)
B0H6YUBED6,上海中天大厦地下停车场(出口),四平路与赤峰路交叉口西南200米,交通设施服务;停车场;停车场出口,150908,310000,上海市,21,上海市,310110,杨浦区,四平路,"121.503009,31.277982",[],交通设施服务,停车场,停车场出口,121.503009,31.277982,"121.498585,31.279989",121.498585,31.279989,POINT (121.498585 31.279989)
B0HBM5LXUU,财富国际广场地下停车场(出口),国权路39号绿色米兰广场B2,交通设施服务;停车场;停车场出口,150908,310000,上海市,21,上海市,310110,杨浦区,四平路,"121.518909,31.287964",[],交通设施服务,停车场,停车场出口,121.518909,31.287964,"121.51454,31.290014",121.51454,31.290014,POINT (121.51454 31.290014)
B0HD951IKN,新金博大厦地下停车场(出口),邯郸路与国宾路交叉口西南约200米,交通设施服务;停车场;停车场出口,150908,310000,上海市,21,上海市,310110,杨浦区,四平路,"121.511647,31.298346",[],交通设施服务,停车场,停车场出口,121.511647,31.298346,"121.507252,31.30037",121.507252,31.30037,POINT (121.507252 31.30037)
B0HGZS39BX,莱克大厦停车场(出口),大连路与阜新路交叉口西北约80米,交通设施服务;停车场;停车场出口,150908,310000,上海市,21,上海市,310110,杨浦区,四平路,"121.503205,31.273563",[],交通设施服务,停车场,停车场出口,121.503205,31.273563,"121.498782,31.275572",121.498782,31.275572,POINT (121.498782 31.275572)
B0H6RU7X1I,九隆坊停车场(出口),国顺路与黄兴路交叉口西南约100米,交通设施服务;停车场;停车场出口,150908,310000,上海市,21,上海市,310110,杨浦区,四平路,"121.518427,31.291146",[],交通设施服务,停车场,停车场出口,121.518427,31.291146,"121.514056,31.293193",121.514056,31.293193,POINT (121.514056 31.293193)
B0H1GSSWSE,同济大厦A楼地下停车场(出口),同一路与济一路交叉口西北约60米,交通设施服务;停车场;停车场出口,150908,310000,上海市,21,上海市,310110,杨浦区,四平路,"121.507310,31.282988",[],交通设施服务,停车场,停车场出口,121.50731,31.282988,"121.502901,31.285006",121.502901,31.285006,POINT (121.502901 31.285006)
B0FFFPY12D,鞍山六村社区停车场(出口),四平路980弄1-36号,交通设施服务;停车场;停车场出入口,150909,310000,上海市,21,上海市,310110,杨浦区,四平路,"121.502652,31.274243",[],交通设施服务,停车场,停车场出入口,121.502652,31.274243,"121.498227,31.27625",121.498227,31.27625,POINT (121.498227 31.27625)
B0HDSA5BRL,怡富商务广场停车场(出口),国顺路与黄兴路交叉口西南约100米,交通设施服务;停车场;停车场出口,150908,310000,上海市,21,上海市,310110,杨浦区,四平路,"121.518426,31.291152",[],交通设施服务,停车场,停车场出口,121.518426,31.291152,"121.514055,31.293199",121.514055,31.293199,POINT (121.514055 31.293199)
B0FFGYM6TB,停车场(入口),四平路莱克大厦北100米,交通设施服务;停车场;停车场出入口,150909,310000,上海市,21,上海市,310110,杨浦区,四平路,"121.503264,31.274651",[],交通设施服务,停车场,停车场出入口,121.503264,31.274651,"121.498841,31.27666",121.498841,31.27666,POINT (121.498841 31.27666)
B0HGY7WNM4,同济科技大厦停车场(出口),[],交通设施服务;停车场;停车场出口,150908,310000,上海市,21,上海市,310110,杨浦区,四平路,"121.503517,31.287054",[],交通设施服务,停车场,停车场出口,121.503517,31.287054,"121.499094,31.289059",121.499094,31.289059,POINT (121.499094 31.289059)
B0FFHWT87Z,恒联新天地花园地上停车场(出口),江浦路2089弄,交通设施服务;停车场;停车场出入口,150909,310000,上海市,21,上海市,310110,杨浦区,四平路,"121.516081,31.281764",[],交通设施服务,停车场,停车场出入口,121.516081,31.281764,"121.511703,31.283808",121.511703,31.283808,POINT (121.511703 31.283808)
BV10640371,国康路中山北二路(公交站),五角场定班车,交通设施服务;公交车站;公交车站相关,150700,310000,上海市,21,上海市,310110,杨浦区,四平路,"121.501511,31.286749",[],交通设施服务,公交车站,公交车站相关,121.501511,31.286749,"121.49708,31.288748",121.49708,31.288748,POINT (121.49708 31.288748)
B0FFGCI8I5,停车场,黄兴路2073附近,交通设施服务;停车场;公共停车场,150904,310000,上海市,21,上海市,310110,杨浦区,四平路,"121.516072,31.297375",[],交通设施服务,停车场,公共停车场,121.516072,31.297375,"121.511693,31.299413",121.511693,31.299413,POINT (121.511693 31.299413)
B0FFGOF013,有线电视站,政化路257号106室,科教文化服务;科教文化场所;科教文化场所,140000,310000,上海市,21,上海市,310110,杨浦区,四平路,"121.510207,31.293593",[],科教文化服务,科教文化场所,科教文化场所,121.510207,31.293593,"121.505807,31.295615",121.505807,31.295615,POINT (121.505807 31.295615)
BV10024697,同济大学(地铁站),10号线,交通设施服务;地铁站;地铁站,150500,310000,上海市,21,上海市,310110,杨浦区,四平路,"121.506357,31.282086",[],交通设施服务,地铁站,地铁站,121.506357,31.282086,"121.501944,31.284101",121.501944,31.284101,POINT (121.501944 31.284101)
B0FFH318D4,物业管理站,鞍山七村2号甲,政府机构及社会团体;政府机关;政府机关相关,130100,310000,上海市,21,上海市,310110,杨浦区,四平路,"121.502824,31.274776",[],政府机构及社会团体,政府机关,政府机关相关,121.502824,31.274776,"121.498399,31.276784",121.498399,31.276784,POINT (121.498399 31.276784)
B0GKMZQBD2,金岛大厦地下停车场(出入口),四平路2500号UMAX悠迈生活广场B2,交通设施服务;停车场;停车场出入口,150909,310000,上海市,21,上海市,310110,杨浦区,四平路,"121.515463,31.298554",[],交通设施服务,停车场,停车场出入口,121.515463,31.298554,"121.511081,31.30059",121.511081,31.30059,POINT (121.511081 31.30059)
B0HG05ZMZH,富庆国定大厦地下停车场(出入口),四平路2150号,交通设施服务;停车场;停车场出入口,150909,310000,上海市,21,上海市,310110,杨浦区,四平路,"121.514032,31.294607",[],交通设施服务,停车场,停车场出入口,121.514032,31.294607,"121.509646,31.29664",121.509646,31.29664,POINT (121.509646 31.29664)
B0HDHAFFL0,怡富商务广场地下停车场(出入口),黄兴路1737号九隆坊B2室,交通设施服务;停车场;停车场出入口,150909,310000,上海市,21,上海市,310110,杨浦区,四平路,"121.518518,31.291156",[],交通设施服务,停车场,停车场出入口,121.518518,31.291156,"121.514148,31.293203",121.514148,31.293203,POINT (121.514148 31.293203)
B0HDPULVE4,蓝天大厦地下停车场(出入口),黄兴路辅路与黄兴路交叉口西北约140米,交通设施服务;停车场;停车场出入口,150909,310000,上海市,21,上海市,310110,杨浦区,四平路,"121.516013,31.297447",[],交通设施服务,停车场,停车场出入口,121.516013,31.297447,"121.511633,31.299485",121.511633,31.299485,POINT (121.511633 31.299485)
B0FFM3LQAQ,警务站,8号线10号线换乘站四平路站四平路站B1,政府机构及社会团体;公检法机构;公检法机关,130500,310000,上海市,21,上海市,310110,杨浦区,四平路,"121.501409,31.275087",[],政府机构及社会团体,公检法机构,公检法机关,121.501409,31.275087,"121.496979,31.27709",121.496979,31.27709,POINT (121.496979 31.27709)
B0FFF3AU27,杨浦区四平路街道除害服务站,密云路444弄-29号甲,政府机构及社会团体;政府机关;乡镇级政府及事业单位,130105,310000,上海市,21,上海市,310110,杨浦区,四平路,"121.497290,31.279389",[],政府机构及社会团体,政府机关,乡镇级政府及事业单位,121.49729,31.279389,"121.492845,31.281378",121.492845,31.281378,POINT (121.492845 31.281378)
B0GUVSVZUX,杨浦区四平路街道退役军人服务站(锦西路服务点),锦西路57号(鞍山三村内),政府机构及社会团体;政府机关;乡镇级政府及事业单位,130105,310000,上海市,21,上海市,310110,杨浦区,四平路,"121.512430,31.277647",021-65102330,政府机构及社会团体,政府机关,乡镇级政府及事业单位,121.51243,31.277647,"121.508039,31.279682",121.508039,31.279682,POINT (121.508039 31.279682)
B0HGCCJ6AP,远洋广场停车场(出入口),四平路1188号,交通设施服务;停车场;停车场出入口,150909,310000,上海市,21,上海市,310110,杨浦区,四平路,"121.504600,31.278422",[],交通设施服务,停车场,停车场出入口,121.5046,31.278422,"121.500181,31.280434",121.500181,31.280434,POINT (121.500181 31.280434)
B0GK7R3JTH,三号湾广场地下停车场(出入口）,国达路与政肃路交叉口西北约120米,交通设施服务;停车场;停车场出入口,150909,310000,上海市,21,上海市,310110,杨浦区,四平路,"121.508299,31.296522",[],交通设施服务,停车场,停车场出入口,121.508299,31.296522,"121.503892,31.298537",121.503892,31.298537,POINT (121.503892 31.298537)
B0HAJU5XSR,市政设计大厦地下停车场(出入口),国康路与四平路辅路交叉口西北约100米,交通设施服务;停车场;停车场出入口,150909,310000,上海市,21,上海市,310110,杨浦区,四平路,"121.506778,31.285392",[],交通设施服务,停车场,停车场出入口,121.506778,31.285392,"121.502367,31.287407",121.502367,31.287407,POINT (121.502367 31.287407)
B0FFHO21YJ,中国电信上海公司东区电信局黄兴电话站(东南门),国顺路105-1号附近,通行设施;临街院门;临街院门,991400,310000,上海市,21,上海市,310110,杨浦区,四平路,"121.516896,31.290913",[],通行设施,临街院门,临街院门,121.516896,31.290913,"121.51252,31.292956",121.51252,31.292956,POINT (121.51252 31.292956)
B00156LUC2,复旦大学智能公话站,国顺路649附近,科教文化服务;学校;高等院校,141201,310000,上海市,21,上海市,310110,杨浦区,四平路,"121.506071,31.29609",[],科教文化服务,学校,高等院校,121.506071,31.29609,"121.501656,31.298099",121.501656,31.298099,POINT (121.501656 31.298099)
B0FFF3AQTJ,控江(四平)工商所消费者申诉站,抚顺路371号,政府机构及社会团体;工商税务机构;工商部门,130701,310000,上海市,21,上海市,310110,杨浦区,四平路,"121.509726,31.277427",[],政府机构及社会团体,工商税务机构,工商部门,121.509726,31.277427,"121.505326,31.279454",121.505326,31.279454,POINT (121.505326 31.279454)
B0FFHTZPWT,密云社区卫生服务站家庭医生工作站,密云路与玉田路交叉口东南约160米,医疗保健服务;综合医院;卫生院,090102,310000,上海市,21,上海市,310110,杨浦区,四平路,"121.497562,31.278095",[],医疗保健服务,综合医院,卫生院,121.497562,31.278095,"121.493118,31.280086",121.493118,31.280086,POINT (121.493118 31.280086)
B0HGOZUA9S,贵人大厦停车场(出入口),控江路与大连路交叉口东北约80米,交通设施服务;停车场;停车场出入口,150909,310000,上海市,21,上海市,310110,杨浦区,四平路,"121.507234,31.270944",[],交通设施服务,停车场,停车场出入口,121.507234,31.270944,"121.502825,31.272967",121.502825,31.272967,POINT (121.502825 31.272967)
B0HDFLHBED,国中大厦停车场(出入口),阜新路与大连路交叉口东北约80米,交通设施服务;停车场;停车场出入口,150909,310000,上海市,21,上海市,310110,杨浦区,四平路,"121.504527,31.273324",[],交通设施服务,停车场,停车场出入口,121.504527,31.273324,"121.500108,31.275337",121.500108,31.275337,POINT (121.500108 31.275337)
B0HG5UA1JP,上海国际设计中心地下停车场(出入口),中山北二路与国康路交叉口东约200米,交通设施服务;停车场;停车场出入口,150909,310000,上海市,21,上海市,310110,杨浦区,四平路,"121.503178,31.287077",[],交通设施服务,停车场,停车场出入口,121.503178,31.287077,"121.498753,31.289081",121.498753,31.289081,POINT (121.498753 31.289081)
B0HGJZJBGZ,同济规划大厦地下停车场(出入口),[],交通设施服务;停车场;停车场出入口,150909,310000,上海市,21,上海市,310110,杨浦区,四平路,"121.505207,31.286234",[],交通设施服务,停车场,停车场出入口,121.505207,31.286234,"121.50079,31.288244",121.50079,31.288244,POINT (121.50079 31.288244)
B0HGZS27MR,莱克大厦地下停车场(出入口),阜新路与大连路交叉口北约60米,交通设施服务;停车场;停车场出入口,150909,310000,上海市,21,上海市,310110,杨浦区,四平路,"121.503805,31.273524",[],交通设施服务,停车场,停车场出入口,121.503805,31.273524,"121.499384,31.275535",121.499384,31.275535,POINT (121.499384 31.275535)
B0FFHFLQV6,停车场(上海信息技术大厦东南),江浦路地铁站1号口东南200米,交通设施服务;停车场;公共停车场,150904,310000,上海市,21,上海市,310110,杨浦区,四平路,"121.520345,31.273925",[],交通设施服务,停车场,公共停车场,121.520345,31.273925,"121.515983,31.275985",121.515983,31.275985,POINT (121.515983 31.275985)
B0FFGCI6O1,停车场(国权路90弄小区东北),国权路与政仁路交叉口东北150米,交通设施服务;停车场;公共停车场,150904,310000,上海市,21,上海市,310110,杨浦区,四平路,"121.518752,31.289097",[],交通设施服务,停车场,公共停车场,121.518752,31.289097,"121.514383,31.291146",121.514383,31.291146,POINT (121.514383 31.291146)
B0FFG83VDG,停车场(抚顺路),抚顺路与鞍山路交叉口西南150米,交通设施服务;停车场;专用停车场,150905,310000,上海市,21,上海市,310110,杨浦区,四平路,"121.509335,31.277265",[],交通设施服务,停车场,专用停车场,121.509335,31.277265,"121.504933,31.279291",121.504933,31.279291,POINT (121.504933 31.279291)
B0FFHWT9QF,伊东苑地上停车场(出入口),许昌路1560弄,交通设施服务;停车场;停车场出入口,150909,310000,上海市,21,上海市,310110,杨浦区,四平路,"121.512713,31.272271",[],交通设施服务,停车场,停车场出入口,121.512713,31.272271,"121.508324,31.274309",121.508324,31.274309,POINT (121.508324 31.274309)
B0FFHWT9FM,安顺苑地上停车场(出入口),鞍山路218弄,交通设施服务;停车场;停车场出入口,150909,310000,上海市,21,上海市,310110,杨浦区,四平路,"121.510627,31.278360",[],交通设施服务,停车场,停车场出入口,121.510627,31.27836,"121.50623,31.28039",121.50623,31.28039,POINT (121.50623 31.28039)
B0FFHWT8HJ,彰武大楼地上停车场(出入口),彰武路72号,交通设施服务;停车场;停车场出入口,150909,310000,上海市,21,上海市,310110,杨浦区,四平路,"121.509719,31.280907",[],交通设施服务,停车场,停车场出入口,121.509719,31.280907,"121.505319,31.282933",121.505319,31.282933,POINT (121.505319 31.282933)
B00155FPO3,中国邮政储蓄银行(鞍山路营业所),鞍山路170号,金融保险服务;银行;中国邮政储蓄银行,160139,310000,上海市,21,上海市,310110,杨浦区,四平路,"121.511251,31.277036",021-65053510,金融保险服务,银行,中国邮政储蓄银行,121.511251,31.277036,"121.506856,31.279068",121.506856,31.279068,POINT (121.506856 31.279068)
B0FFGTHMLY,中国邮政储蓄银行(胜利村营业所),大连路1558-2号,金融保险服务;银行;中国邮政储蓄银行,160139,310000,上海市,21,上海市,310110,杨浦区,四平路,"121.502666,31.274012",021-65138081,金融保险服务,银行,中国邮政储蓄银行,121.502666,31.274012,"121.498241,31.27602",121.498241,31.27602,POINT (121.498241 31.27602)
B0FFHWT89R,四季绿园地上停车场(出入口),国顺路119弄,交通设施服务;停车场;停车场出入口,150909,310000,上海市,21,上海市,310110,杨浦区,四平路,"121.516155,31.290451",[],交通设施服务,停车场,停车场出入口,121.516155,31.290451,"121.511777,31.292492",121.511777,31.292492,POINT (121.511777 31.292492)
B0FFGFAT11,复旦书馨公寓停车场(出入口),国权后路19号,交通设施服务;停车场;停车场出入口,150909,310000,上海市,21,上海市,310110,杨浦区,四平路,"121.505018,31.289496",[],交通设施服务,停车场,停车场出入口,121.505018,31.289496,"121.5006,31.291504",121.5006,31.291504,POINT (121.5006 31.291504)
B00155QTJB,中国邮政储蓄银行24小时自助银行(鞍山支行),铁岭路42号、42-1号、44号,金融保险服务;自动提款机;中国邮政储蓄银行ATM,160336,310000,上海市,21,上海市,310110,杨浦区,四平路,"121.514168,31.278283",[],金融保险服务,自动提款机,中国邮政储蓄银行ATM,121.514168,31.278283,"121.509784,31.280323",121.509784,31.280323,POINT (121.509784 31.280323)
B0FFGTHMUX,中国邮政储蓄银行24小时自助银行(胜利村营业所),大连路1558-2号,金融保险服务;自动提款机;中国邮政储蓄银行ATM,160336,310000,上海市,21,上海市,310110,杨浦区,四平路,"121.502639,31.274036",[],金融保险服务,自动提款机,中国邮政储蓄银行ATM,121.502639,31.274036,"121.498214,31.276044",121.498214,31.276044,POINT (121.498214 31.276044)
B0FFHWT9R3,汇丰苑地上停车场(出入口),国权后路25弄1-22号,交通设施服务;停车场;停车场出入口,150909,310000,上海市,21,上海市,310110,杨浦区,四平路,"121.504286,31.289800",[],交通设施服务,停车场,停车场出入口,121.504286,31.2898,"121.499865,31.291806",121.499865,31.291806,POINT (121.499865 31.291806)
B0FFHWT8YJ,通华大楼地上停车场(出入口),四平路1230号甲,交通设施服务;停车场;停车场出入口,150909,310000,上海市,21,上海市,310110,杨浦区,四平路,"121.504705,31.278674",[],交通设施服务,停车场,停车场出入口,121.504705,31.278674,"121.500287,31.280686",121.500287,31.280686,POINT (121.500287 31.280686)
B0FFHWT7IU,鼎盛公寓地上停车场(出入口),中山北二路1021弄,交通设施服务;停车场;停车场出入口,150909,310000,上海市,21,上海市,310110,杨浦区,四平路,"121.505806,31.286646",[],交通设施服务,停车场,停车场出入口,121.505806,31.286646,"121.501391,31.288658",121.501391,31.288658,POINT (121.501391 31.288658)
B0FFHWT7VR,鞍山五村小区停车场(出入口),四平路1020弄,交通设施服务;停车场;停车场出入口,150909,310000,上海市,21,上海市,310110,杨浦区,四平路,"121.504578,31.277323",[],交通设施服务,停车场,停车场出入口,121.504578,31.277323,"121.500159,31.279335",121.500159,31.279335,POINT (121.500159 31.279335)
B0HGJZJ3R9,同济规划大厦停车场(出入口),[],交通设施服务;停车场;停车场出入口,150909,310000,上海市,21,上海市,310110,杨浦区,四平路,"121.505027,31.286823",[],交通设施服务,停车场,停车场出入口,121.505027,31.286823,"121.500609,31.288832",121.500609,31.288832,POINT (121.500609 31.288832)
B0FFHWT8LJ,公交新村社区停车场(出入口),四平路1230弄56号四平路1028弄1-40号阜新路169弄1-16号阜新路177-187号,交通设施服务;停车场;停车场出入口,150909,310000,上海市,21,上海市,310110,杨浦区,四平路,"121.506800,31.277203",[],交通设施服务,停车场,停车场出入口,121.5068,31.277203,"121.502389,31.279222",121.502389,31.279222,POINT (121.502389 31.279222)
B0FFFOQD19,恒联新天地花园停车场(出入口),江浦路2091号恒联新天地花园附近,交通设施服务;停车场;停车场出入口,150909,310000,上海市,21,上海市,310110,杨浦区,四平路,"121.515792,31.282725",[],交通设施服务,停车场,停车场出入口,121.515792,31.282725,"121.511413,31.284768",121.511413,31.284768,POINT (121.511413 31.284768)
B0HRLKWXNM,停车场(国权路),国权路国顺路131弄小区西南侧约50米,交通设施服务;停车场;专用停车场,150905,310000,上海市,21,上海市,310110,杨浦区,四平路,"121.512174,31.290046",[],交通设施服务,停车场,专用停车场,121.512174,31.290046,"121.507782,31.292075",121.507782,31.292075,POINT (121.507782 31.292075)
B0FFHWT6AG,同济国康公寓地上停车场(出入口),中山北二路1121号,交通设施服务;停车场;停车场出入口,150909,310000,上海市,21,上海市,310110,杨浦区,四平路,"121.503638,31.287072",[],交通设施服务,停车场,停车场出入口,121.503638,31.287072,"121.499215,31.289077",121.499215,31.289077,POINT (121.499215 31.289077)
B0FFH10ZAR,上海开放大学停车场(出入口),政法路195号附近,交通设施服务;停车场;停车场出入口,150909,310000,上海市,21,上海市,310110,杨浦区,四平路,"121.514445,31.293139",[],交通设施服务,停车场,停车场出入口,121.514445,31.293139,"121.51006,31.295174",121.51006,31.295174,POINT (121.51006 31.295174)
B0FFHWT671,凤城二村小区停车场(出入口),江浦路2017-1临附近,交通设施服务;停车场;停车场出入口,150909,310000,上海市,21,上海市,310110,杨浦区,四平路,"121.518578,31.279234",[],交通设施服务,停车场,停车场出入口,121.518578,31.279234,"121.514209,31.281286",121.514209,31.281286,POINT (121.514209 31.281286)
B0HU652G6C,同博大厦机械停车场(出入口),政本路与国科路交叉口西约40米,交通设施服务;停车场;停车场出入口,150909,310000,上海市,21,上海市,310110,杨浦区,四平路,"121.514628,31.285974",[],交通设施服务,停车场,停车场出入口,121.514628,31.285974,"121.510245,31.288012",121.510245,31.288012,POINT (121.510245 31.288012)
B0HGRDNGB1,国中公寓南停车场(出入口),阜新路与大连路交叉口东约20米,交通设施服务;停车场;停车场出入口,150909,310000,上海市,21,上海市,310110,杨浦区,四平路,"121.503853,31.272967",[],交通设施服务,停车场,停车场出入口,121.503853,31.272967,"121.499432,31.274979",121.499432,31.274979,POINT (121.499432 31.274979)
B0HGRDMDUP,国中公寓北停车场(出入口),大连路与阜新路交叉口东南约100米,交通设施服务;停车场;停车场出入口,150909,310000,上海市,21,上海市,310110,杨浦区,四平路,"121.504682,31.272368",[],交通设施服务,停车场,停车场出入口,121.504682,31.272368,"121.500264,31.274382",121.500264,31.274382,POINT (121.500264 31.274382)
B0FFICFGSS,上海同济大学停车场(出入口),赤峰路66-1号附近,交通设施服务;停车场;公共停车场,150904,310000,上海市,21,上海市,310110,杨浦区,四平路,"121.500308,31.280692",[],交通设施服务,停车场,公共停车场,121.500308,31.280692,"121.495874,31.28269",121.495874,31.28269,POINT (121.495874 31.28269)
B0HGRDMDUQ,国中公寓南停车场(出入口)(建设中),大连路与阜新路交叉口东南约100米,交通设施服务;停车场;停车场出入口,150909,310000,上海市,21,上海市,310110,杨浦区,四平路,"121.504532,31.272398",[],交通设施服务,停车场,停车场出入口,121.504532,31.272398,"121.500114,31.274412",121.500114,31.274412,POINT (121.500114 31.274412)
B00156NYDK,停车场(复华科技大楼东南),国权路507号513号,交通设施服务;停车场;专用停车场,150905,310000,上海市,21,上海市,310110,杨浦区,四平路,"121.504221,31.293244",[],交通设施服务,停车场,专用停车场,121.504221,31.293244,"121.4998,31.295248",121.4998,31.295248,POINT (121.4998 31.295248)
B0FFH022AY,停车场(复旦科技园大厦西南),国泰路127弄复旦大学,交通设施服务;停车场;公共停车场,150904,310000,上海市,21,上海市,310110,杨浦区,四平路,"121.507144,31.287897",[],交通设施服务,停车场,公共停车场,121.507144,31.287897,"121.502734,31.289912",121.502734,31.289912,POINT (121.502734 31.289912)
B0FFG6S4TS,停车场(坞浜路),国康路南150米,交通设施服务;停车场;公共停车场,150904,310000,上海市,21,上海市,310110,杨浦区,四平路,"121.501784,31.285414",[],交通设施服务,停车场,公共停车场,121.501784,31.285414,"121.497355,31.287414",121.497355,31.287414,POINT (121.497355 31.287414)
B0FFF3AQQK,停车场(东银茗苑东),周家嘴路2007东银茗苑,交通设施服务;停车场;公共停车场,150904,310000,上海市,21,上海市,310110,杨浦区,四平路,"121.514332,31.266736",[],交通设施服务,停车场,公共停车场,121.514332,31.266736,"121.509949,31.268781",121.509949,31.268781,POINT (121.509949 31.268781)
B0FFFZHVGG,鞍山六村南区停车场,打虎山路123号鞍山六村南区,交通设施服务;停车场;公共停车场,150904,310000,上海市,21,上海市,310110,杨浦区,四平路,"121.506623,31.273678",[],交通设施服务,停车场,公共停车场,121.506623,31.273678,"121.502212,31.275698",121.502212,31.275698,POINT (121.502212 31.275698)
B0FFFZJXX1,上海杨浦区阜和进修学校,四平路1388号同济联合广场C楼10层,科教文化服务;学校;成人教育,141205,310000,上海市,21,上海市,310110,杨浦区,四平路,"121.507475,31.281304",[],科教文化服务,学校,成人教育,121.507475,31.281304,"121.503066,31.283323",121.503066,31.283323,POINT (121.503066 31.283323)
B00154OYP6,杨浦高级中学,四平路999号(近大连路),科教文化服务;学校;中学,141202,310000,上海市,21,上海市,310110,杨浦区,四平路,"121.500408,31.277089",021-65976032,科教文化服务,学校,中学,121.500408,31.277089,"121.495974,31.279089",121.495974,31.279089,POINT (121.495974 31.279089)
B0FFHWT7CH,上海市杨浦区教育学院停车场(出入口),抚顺路340号,交通设施服务;停车场;停车场出入口,150909,310000,上海市,21,上海市,310110,杨浦区,四平路,"121.512664,31.279819",[],交通设施服务,停车场,停车场出入口,121.512664,31.279819,"121.508274,31.281854",121.508274,31.281854,POINT (121.508274 31.281854)
B00156SL5P,上海杨浦区鞍山路营业所,鞍山路180号,生活服务;生活服务场所;生活服务场所,070000,310000,上海市,21,上海市,310110,杨浦区,四平路,"121.511194,31.277091",[],生活服务,生活服务场所,生活服务场所,121.511194,31.277091,"121.506799,31.279123",121.506799,31.279123,POINT (121.506799 31.279123)
B0G3LPECBA,辽源二村第二社区,杨浦区,地名地址信息;普通地名;村庄级地名,190108,310000,上海市,21,上海市,310110,杨浦区,四平路,"121.513198,31.270452",[],地名地址信息,普通地名,村庄级地名,121.513198,31.270452,"121.508811,31.272492",121.508811,31.272492,POINT (121.508811 31.272492)
B0FFG08SXY,同济大学南校区停车场,四平路1239号同济大学四平路校区,交通设施服务;停车场;专用停车场,150905,310000,上海市,21,上海市,310110,杨浦区,四平路,"121.498961,31.279474",[],交通设施服务,停车场,专用停车场,121.498961,31.279474,"121.494522,31.281468",121.494522,31.281468,POINT (121.494522 31.281468)
B0GK1GW7NB,鞍山五村社区,杨浦区,地名地址信息;普通地名;村庄级地名,190108,310000,上海市,21,上海市,310110,杨浦区,四平路,"121.505468,31.275683",[],地名地址信息,普通地名,村庄级地名,121.505468,31.275683,"121.501053,31.277698",121.501053,31.277698,POINT (121.501053 31.277698)
B0G3ZMOZRI,恒阳花苑社区,杨浦区,地名地址信息;普通地名;村庄级地名,190108,310000,上海市,21,上海市,310110,杨浦区,四平路,"121.509018,31.270271",[],地名地址信息,普通地名,村庄级地名,121.509018,31.270271,"121.504616,31.272299",121.504616,31.272299,POINT (121.504616 31.272299)
B0G3DM1XG1,五环社区,杨浦区,地名地址信息;普通地名;村庄级地名,190108,310000,上海市,21,上海市,310110,杨浦区,四平路,"121.508750,31.270738",[],地名地址信息,普通地名,村庄级地名,121.50875,31.270738,"121.504347,31.272765",121.504347,31.272765,POINT (121.504347 31.272765)
B0FFFOP9SB,胜利村,杨浦区,地名地址信息;普通地名;村庄级地名,190108,310000,上海市,21,上海市,310110,杨浦区,四平路,"121.502733,31.274012",[],地名地址信息,普通地名,村庄级地名,121.502733,31.274012,"121.498308,31.27602",121.498308,31.27602,POINT (121.498308 31.27602)
B0H1ZH6T4L,上海市杨浦区龙静数码产品经营部,颐高数码广场,购物服务;家电电子卖场;数码电子,060306,310000,上海市,21,上海市,310110,杨浦区,四平路,"121.508672,31.297245",13120559501,购物服务,家电电子卖场,数码电子,121.508672,31.297245,"121.504266,31.299261",121.504266,31.299261,POINT (121.504266 31.299261)
B0FFKHA4J4,上海市杨浦区大连路第二幼儿园,大连西路30弄13号附近,科教文化服务;学校;幼儿园,141204,310000,上海市,21,上海市,310110,杨浦区,四平路,"121.497647,31.277934",[],科教文化服务,学校,幼儿园,121.497647,31.277934,"121.493203,31.279925",121.493203,31.279925,POINT (121.493203 31.279925)
B0FFG4IR8Z,上海市杨浦区四平街道敬老院(东北门),铁岭路50弄63号,通行设施;临街院门;临街院门,991400,310000,上海市,21,上海市,310110,杨浦区,四平路,"121.515757,31.279377",[],通行设施,临街院门,临街院门,121.515757,31.279377,"121.511378,31.281421",121.511378,31.281421,POINT (121.511378 31.281421)
B0HGJZI3IX,杨浦科技大厦西停车场,黄兴路2005弄2号楼杨浦科技大厦,交通设施服务;停车场;公共停车场,150904,310000,上海市,21,上海市,310110,杨浦区,四平路,"121.517979,31.293345",[],交通设施服务,停车场,公共停车场,121.517979,31.293345,"121.513607,31.29539",121.513607,31.29539,POINT (121.513607 31.29539)
B0FFF3AU09,同济大学四平路校区南区停车场,赤峰路63-9附近,交通设施服务;停车场;公共停车场,150904,310000,上海市,21,上海市,310110,杨浦区,四平路,"121.501099,31.279800",[],交通设施服务,停车场,公共停车场,121.501099,31.2798,"121.496668,31.2818",121.496668,31.2818,POINT (121.496668 31.2818)
B00155MMUO,同济大学四平路校区(南区),赤峰路67同济大学,科教文化服务;学校;高等院校,141201,310000,上海市,21,上海市,310110,杨浦区,四平路,"121.499161,31.279464",[],科教文化服务,学校,高等院校,121.499161,31.279464,"121.494723,31.281459",121.494723,31.281459,POINT (121.494723 31.281459)
B0HU7KUMKW,上海众祥荣(杨浦区店),邯郸路195号,购物服务;便民商店/便利店;便民商店/便利店,060200,310000,上海市,21,上海市,310110,杨浦区,四平路,"121.500923,31.295173",021-65800689,购物服务,便民商店/便利店,便民商店/便利店,121.500923,31.295173,"121.49649,31.297167",121.49649,31.297167,POINT (121.49649 31.297167)
B0FFKITKA5,惠普笔记本电脑中心(杨浦区店),国顺路66弄2号楼2302A室,购物服务;家电电子卖场;数码电子,060306,310000,上海市,21,上海市,310110,杨浦区,四平路,"121.518615,31.291829",[],购物服务,家电电子卖场,数码电子,121.518615,31.291829,"121.514245,31.293876",121.514245,31.293876,POINT (121.514245 31.293876)
B0HK9D1S17,和家,杨浦区,地名地址信息;普通地名;村庄级地名,190108,310000,上海市,21,上海市,310110,杨浦区,四平路,"121.519122,31.288709",[],地名地址信息,普通地名,村庄级地名,121.519122,31.288709,"121.514754,31.290759",121.514754,31.290759,POINT (121.514754 31.290759)
B00156GX1E,美利达自行车(杨浦国定路店),国定路22号,购物服务;专卖店;自行车专卖店,061208,310000,上海市,21,上海市,310110,杨浦区,四平路,"121.517231,31.294276",021-55132769,购物服务,专卖店,自行车专卖店,121.517231,31.294276,"121.512856,31.296318",121.512856,31.296318,POINT (121.512856 31.296318)
B00155F1BJ,同济大学四平路校区外国语学院,国康路11号,科教文化服务;学校;高等院校,141201,310000,上海市,21,上海市,310110,杨浦区,四平路,"121.505971,31.284255",[],科教文化服务,学校,高等院校,121.505971,31.284255,"121.501557,31.286268",121.501557,31.286268,POINT (121.501557 31.286268)
B001571I7O,新王牌教育(杨浦中心),大连路1548号莱克商务中心2层201-202,科教文化服务;培训机构;培训机构,141400,310000,上海市,21,上海市,310110,杨浦区,四平路,"121.503369,31.273562",021-65552220,科教文化服务,培训机构,培训机构,121.503369,31.273562,"121.498946,31.275572",121.498946,31.275572,POINT (121.498946 31.275572)
B00155KCHG,复旦大学美国研究中心,国权路680号复旦大学,科教文化服务;科研机构;科研机构,141300,310000,上海市,21,上海市,310110,杨浦区,四平路,"121.503316,31.295549",[],科教文化服务,科研机构,科研机构,121.503316,31.295549,"121.498891,31.29755",121.498891,31.29755,POINT (121.498891 31.29755)
B0FFH17WDZ,同济大学四平路校区停车场,赤峰路18号,交通设施服务;停车场;专用停车场,150905,310000,上海市,21,上海市,310110,杨浦区,四平路,"121.502022,31.280223",[],交通设施服务,停车场,专用停车场,121.502022,31.280223,"121.497594,31.282226",121.497594,31.282226,POINT (121.497594 31.282226)
B00155QT5W,同济大学四平路校区出版社(赤峰路),赤峰路2号,科教文化服务;传媒机构;出版社,141105,310000,上海市,21,上海市,310110,杨浦区,四平路,"121.504202,31.279215",[],科教文化服务,传媒机构,出版社,121.504202,31.279215,"121.499782,31.281225",121.499782,31.281225,POINT (121.499782 31.281225)
B0HUBSCDOV,杨浦科技创业中心地下停车场,国达路118号,交通设施服务;停车场;公共停车场,150904,310000,上海市,21,上海市,310110,杨浦区,四平路,"121.508146,31.297020",[],交通设施服务,停车场,公共停车场,121.508146,31.29702,"121.503739,31.299035",121.503739,31.299035,POINT (121.503739 31.299035)
B00155Q6PJ,同济大学停车场,国康路11同济大学,交通设施服务;停车场;专用停车场,150905,310000,上海市,21,上海市,310110,杨浦区,四平路,"121.505775,31.285204",[],交通设施服务,停车场,专用停车场,121.505775,31.285204,"121.50136,31.287216",121.50136,31.287216,POINT (121.50136 31.287216)
B00155HGSP,复旦大学游泳馆,邯郸路220号复旦大学邯郸校区南区学生公寓内,体育休闲服务;运动场馆;游泳馆,080110,310000,上海市,21,上海市,310110,杨浦区,四平路,"121.502412,31.292314",021-65642115,体育休闲服务,运动场馆,游泳馆,121.502412,31.292314,"121.497984,31.294313",121.497984,31.294313,POINT (121.497984 31.294313)
B00156CWPF,同济大学四平路校区停车场,四平路1239号同济大学四平路校区,交通设施服务;停车场;专用停车场,150905,310000,上海市,21,上海市,310110,杨浦区,四平路,"121.499006,31.284310",[],交通设施服务,停车场,专用停车场,121.499006,31.28431,"121.494567,31.286302",121.494567,31.286302,POINT (121.494567 31.286302)
B00155KFMJ,同济大学四平路校区停车场,赤峰路50号,交通设施服务;停车场;专用停车场,150905,310000,上海市,21,上海市,310110,杨浦区,四平路,"121.506484,31.284309",[],交通设施服务,停车场,专用停车场,121.506484,31.284309,"121.502072,31.286324",121.502072,31.286324,POINT (121.502072 31.286324)
B00156NUZT,同济大学四平路校区停车场,赤峰路190号,交通设施服务;停车场;专用停车场,150905,310000,上海市,21,上海市,310110,杨浦区,四平路,"121.497670,31.282097",[],交通设施服务,停车场,专用停车场,121.49767,31.282097,"121.493226,31.284086",121.493226,31.284086,POINT (121.493226 31.284086)
B001559HJF,复旦大学文科图书馆,国年路300号(邯郸路口),科教文化服务;图书馆;图书馆,140500,310000,上海市,21,上海市,310110,杨浦区,四平路,"121.50518,31.296125",021-65643178,科教文化服务,图书馆,图书馆,121.50518,31.296125,"121.500762,31.298131",121.500762,31.298131,POINT (121.500762 31.298131)
B00155KS7R,同济大学四平路校区游泳馆(暂停营业),四平路1239号同济大学四平路校区,体育休闲服务;运动场馆;游泳馆,080110,310000,上海市,21,上海市,310110,杨浦区,四平路,"121.501631,31.280959",021-65985413,体育休闲服务,运动场馆,游泳馆,121.501631,31.280959,"121.497201,31.282961",121.497201,31.282961,POINT (121.497201 31.282961)
B00155MMUJ,同济大学四平路校区档案馆,四平路1239号同济大学四平路校区,科教文化服务;档案馆;档案馆,140900,310000,上海市,21,上海市,310110,杨浦区,四平路,"121.499023,31.279127",021-65980365,科教文化服务,档案馆,档案馆,121.499023,31.279127,"121.494584,31.281122",121.494584,31.281122,POINT (121.494584 31.281122)
B00156CWPG,同济大学四平路校区停车场,赤峰路同济大学,交通设施服务;停车场;专用停车场|交通设施服务;停车场;停车场出口,150905|150908,310000,上海市,21,上海市,310110,杨浦区,四平路,"121.498677,31.282130",[],交通设施服务,停车场,专用停车场|交通设施服务,121.498677,31.28213,"121.494237,31.284122",121.494237,31.284122,POINT (121.494237 31.284122)
B00155MLYL,同济大学图书馆,四平路1239号同济大学,科教文化服务;图书馆;图书馆,140500,310000,上海市,21,上海市,310110,杨浦区,四平路,"121.503965,31.283437",[],科教文化服务,图书馆,图书馆,121.503965,31.283437,"121.499544,31.285445",121.499544,31.285445,POINT (121.499544 31.285445)
B001538431,复旦大学附属小学,政修路130号,科教文化服务;学校;小学,141203,310000,上海市,21,上海市,310110,杨浦区,四平路,"121.505355,31.292306",021-65643395;021-65643393,科教文化服务,学校,小学,121.505355,31.292306,"121.500938,31.294314",121.500938,31.294314,POINT (121.500938 31.294314)
B00155KV3K,同济大学停车场,赤峰路50号同济大学四平路校区,交通设施服务;停车场;专用停车场,150905,310000,上海市,21,上海市,310110,杨浦区,四平路,"121.501019,31.281537",[],交通设施服务,停车场,专用停车场,121.501019,31.281537,"121.496587,31.283537",121.496587,31.283537,POINT (121.496587 31.283537)
B0FFFZJQ52,复旦管理学院A停车场,邯郸路220号复旦大学邯郸校区,交通设施服务;停车场;公共停车场,150904,310000,上海市,21,上海市,310110,杨浦区,四平路,"121.504354,31.293321",[],交通设施服务,停车场,公共停车场,121.504354,31.293321,"121.499933,31.295326",121.499933,31.295326,POINT (121.499933 31.295326)
B0FFFZW5Y4,鞍山六村停车场,打虎山路110号鞍山六村,交通设施服务;停车场;专用停车场,150905,310000,上海市,21,上海市,310110,杨浦区,四平路,"121.504840,31.275433",[],交通设施服务,停车场,专用停车场,121.50484,31.275433,"121.500422,31.277447",121.500422,31.277447,POINT (121.500422 31.277447)
B0FFFZI1CQ,铁村小区停车场,国定路277弄1-78号铁村小区,交通设施服务;停车场;公共停车场,150904,310000,上海市,21,上海市,310110,杨浦区,四平路,"121.510066,31.294766",[],交通设施服务,停车场,公共停车场,121.510066,31.294766,"121.505666,31.296787",121.505666,31.296787,POINT (121.505666 31.296787)
B0FFFZW63W,同济新村停车场,彰武路600号同济新村,交通设施服务;停车场;公共停车场,150904,310000,上海市,21,上海市,310110,杨浦区,四平路,"121.509889,31.283071",[],交通设施服务,停车场,公共停车场,121.509889,31.283071,"121.505489,31.285096",121.505489,31.285096,POINT (121.505489 31.285096)
B0FFFZVPHO,抚顺路363弄小区停车场,抚顺路363弄小区,交通设施服务;停车场;专用停车场,150905,310000,上海市,21,上海市,310110,杨浦区,四平路,"121.511150,31.277950",[],交通设施服务,停车场,专用停车场,121.51115,31.27795,"121.506755,31.279981",121.506755,31.279981,POINT (121.506755 31.279981)
B00154G55S,复旦大学招待所,国年路260弄1号复旦大学,住宿服务;旅馆招待所;旅馆招待所,100200,310000,上海市,21,上海市,310110,杨浦区,四平路,"121.505782,31.294750",[],住宿服务,旅馆招待所,旅馆招待所,121.505782,31.29475,"121.501366,31.296758",121.501366,31.296758,POINT (121.501366 31.296758)
B0FFFZVPLU,江浦路2009弄小区停车场,江浦路2009弄小区,交通设施服务;停车场;专用停车场,150905,310000,上海市,21,上海市,310110,杨浦区,四平路,"121.516201,31.280069",[],交通设施服务,停车场,专用停车场,121.516201,31.280069,"121.511824,31.282114",121.511824,31.282114,POINT (121.511824 31.282114)
B0FFFO1NZX,同济大学建筑设计研究院集团有限公司,四平路1230号,科教文化服务;科研机构;科研机构,141300,310000,上海市,21,上海市,310110,杨浦区,四平路,"121.507171,31.280224",[],科教文化服务,科研机构,科研机构,121.507171,31.280224,"121.502761,31.282243",121.502761,31.282243,POINT (121.502761 31.282243)
B00155BMZ2,五角场街道社区文化活动中心,政化路257号,科教文化服务;文化宫;文化宫,140800,310000,上海市,21,上海市,310110,杨浦区,四平路,"121.510187,31.293286",[],科教文化服务,文化宫,文化宫,121.510187,31.293286,"121.505787,31.295308",121.505787,31.295308,POINT (121.505787 31.295308)
B0FFF8Z60D,复旦大学停车场,邯郸路220号复旦大学,交通设施服务;停车场;专用停车场,150905,310000,上海市,21,上海市,310110,杨浦区,四平路,"121.507249,31.296523",[],交通设施服务,停车场,专用停车场,121.507249,31.296523,"121.502838,31.298535",121.502838,31.298535,POINT (121.502838 31.298535)
B00156NUFF,复旦大学邯郸校区经济学院停车场,国权路600复旦大学邯郸校区经济学院,交通设施服务;停车场;公共停车场,150904,310000,上海市,21,上海市,310110,杨浦区,四平路,"121.503351,31.294921",[],交通设施服务,停车场,公共停车场,121.503351,31.294921,"121.498926,31.296922",121.498926,31.296922,POINT (121.498926 31.296922)
B0FFFWTW0F,海通证券(上海政本路营业部),政本路141号复华商业大厦2层,金融保险服务;证券公司;证券营业厅,160501,310000,上海市,21,上海市,310110,杨浦区,四平路,"121.515257,31.289934",021-65030707;95553,金融保险服务,证券公司,证券营业厅,121.515257,31.289934,"121.510875,31.291972",121.510875,31.291972,POINT (121.510875 31.291972)
B00155KUJ6,同济大学研究生院,四平路1239号同济大学四平路校区,科教文化服务;学校;高等院校,141201,310000,上海市,21,上海市,310110,杨浦区,四平路,"121.502419,31.284715",[],科教文化服务,学校,高等院校,121.502419,31.284715,"121.497992,31.286717",121.497992,31.286717,POINT (121.497992 31.286717)
B00156NYDD,复旦大学附属中学国际部,国权路325号,科教文化服务;学校;中学,141202,310000,上海市,21,上海市,310110,杨浦区,四平路,"121.508062,31.28996",021-65107760;021-65201726,科教文化服务,学校,中学,121.508062,31.28996,"121.503655,31.291977",121.503655,31.291977,POINT (121.503655 31.291977)
B0FFGDQ1AH,同济大学外国留学生教育部,赤峰路75附近,科教文化服务;学校;高等院校,141201,310000,上海市,21,上海市,310110,杨浦区,四平路,"121.499202,31.280693",[],科教文化服务,学校,高等院校,121.499202,31.280693,"121.494764,31.282687",121.494764,31.282687,POINT (121.494764 31.282687)
B0FFINNCI4,四平路派出所鞍山五村社区警务室,阜新路121号附近,政府机构及社会团体;公检法机构;公安警察,130501,310000,上海市,21,上海市,310110,杨浦区,四平路,"121.505509,31.275609",[],政府机构及社会团体,公检法机构,公安警察,121.505509,31.275609,"121.501094,31.277624",121.501094,31.277624,POINT (121.501094 31.277624)
B0HRCXNW5Y,中国移动(同济联合广场店),四平路1388号同济联合广场F1,购物服务;家电电子卖场;手机销售,060305,310000,上海市,21,上海市,310110,杨浦区,四平路,"121.507604,31.281379",[],购物服务,家电电子卖场,手机销售,121.507604,31.281379,"121.503196,31.283398",121.503196,31.283398,POINT (121.503196 31.283398)
B0FFF6R8U3,中国移动通讯(政本路),国权路300号,购物服务;家电电子卖场;手机销售,060305,310000,上海市,21,上海市,310110,杨浦区,四平路,"121.515498,31.287360",[],购物服务,家电电子卖场,手机销售,121.515498,31.28736,"121.511118,31.2894",121.511118,31.2894,POINT (121.511118 31.2894)
B0FFHS33R0,千姿花卉(五角场店),黄兴路万达广场(上海五角场店)东南侧约160米,购物服务;花鸟鱼虫市场;花卉市场,060501,310000,上海市,21,上海市,310110,杨浦区,四平路,"121.515640,31.298767",15802031915,购物服务,花鸟鱼虫市场,花卉市场,121.51564,31.298767,"121.511259,31.300803",121.511259,31.300803,POINT (121.511259 31.300803)
B0FFLB1IEM,中国移动,四平路四平住宅小区,购物服务;家电电子卖场;手机销售,060305,310000,上海市,21,上海市,310110,杨浦区,四平路,"121.512252,31.293823",[],购物服务,家电电子卖场,手机销售,121.512252,31.293823,"121.507859,31.295851",121.507859,31.295851,POINT (121.507859 31.295851)
B0FFHSRZB8,阜新路社区睦邻中心,鞍山五村33号甲,政府机构及社会团体;政府机关;政府机关相关,130100,310000,上海市,21,上海市,310110,杨浦区,四平路,"121.505715,31.276834",021-55898662,政府机构及社会团体,政府机关,政府机关相关,121.505715,31.276834,"121.5013,31.27885",121.5013,31.27885,POINT (121.5013 31.27885)
B0FFHW58LO,四平路街道托老所,锦西路61号附近,政府机构及社会团体;政府机关;政府机关相关,130100,310000,上海市,21,上海市,310110,杨浦区,四平路,"121.512668,31.277514",[],政府机构及社会团体,政府机关,政府机关相关,121.512668,31.277514,"121.508278,31.27955",121.508278,31.27955,POINT (121.508278 31.27955)
B0G3TOS80P,四平工商所消费者权益保护鞍山七村居委会联络点,阜新路101号甲,政府机构及社会团体;政府机关;政府机关相关,130100,310000,上海市,21,上海市,310110,杨浦区,四平路,"121.505022,31.274728",[],政府机构及社会团体,政府机关,政府机关相关,121.505022,31.274728,"121.500605,31.276742",121.500605,31.276742,POINT (121.500605 31.276742)
B0FFIAKFMN,四平工商所消费者权益保护鞍山五村居委会联络点,阜新路鞍山五村小区,政府机构及社会团体;政府机关;政府机关相关,130100,310000,上海市,21,上海市,310110,杨浦区,四平路,"121.505448,31.275698",[],政府机构及社会团体,政府机关,政府机关相关,121.505448,31.275698,"121.501033,31.277713",121.501033,31.277713,POINT (121.501033 31.277713)
B0FFIB585C,上海市杨浦区四平路街道社会组织服务中心,四平路710号广益大厦,政府机构及社会团体;政府机关;政府机关相关,130100,310000,上海市,21,上海市,310110,杨浦区,四平路,"121.505604,31.277124",[],政府机构及社会团体,政府机关,政府机关相关,121.505604,31.277124,"121.501189,31.279139",121.501189,31.279139,POINT (121.501189 31.279139)
B0HU44I5ZT,上海虹口计量技术检测服务部,赤峰路63号上海沪东科技经济园区1号楼3层302号,政府机构及社会团体;政府机关;政府机关相关,130100,310000,上海市,21,上海市,310110,杨浦区,四平路,"121.501505,31.279710",[],政府机构及社会团体,政府机关,政府机关相关,121.501505,31.27971,"121.497075,31.281712",121.497075,31.281712,POINT (121.497075 31.281712)
B0FFIAPQGZ,中共杨浦区四平路街道鞍山四村第二居民区总支部委员会,阜新路184号附近,政府机构及社会团体;政府机关;政府机关相关,130100,310000,上海市,21,上海市,310110,杨浦区,四平路,"121.507971,31.277897",[],政府机构及社会团体,政府机关,政府机关相关,121.507971,31.277897,"121.503565,31.279919",121.503565,31.279919,POINT (121.503565 31.279919)
B0FFG28KLG,上海市杨浦区知识产权试点园区,铁岭路同叶大厦,政府机构及社会团体;政府机关;政府机关相关,130100,310000,上海市,21,上海市,310110,杨浦区,四平路,"121.514574,31.277881",[],政府机构及社会团体,政府机关,政府机关相关,121.514574,31.277881,"121.510191,31.279922",121.510191,31.279922,POINT (121.510191 31.279922)
B0FFL8E4M7,离退休工作办公室,彰武路上海同济迎宾馆东侧约130米,政府机构及社会团体;政府机关;政府机关相关,130100,310000,上海市,21,上海市,310110,杨浦区,四平路,"121.512502,31.281765",[],政府机构及社会团体,政府机关,政府机关相关,121.512502,31.281765,"121.508111,31.283799",121.508111,31.283799,POINT (121.508111 31.283799)
B0FFHUKDO1,杨浦区四平路街道民族之家,济一路同济大学-经济与管理学院东南侧约30米,政府机构及社会团体;政府机关;政府机关相关,130100,310000,上海市,21,上海市,310110,杨浦区,四平路,"121.507991,31.282503",[],政府机构及社会团体,政府机关,政府机关相关,121.507991,31.282503,"121.503584,31.284523",121.503584,31.284523,POINT (121.503584 31.284523)
B0FFI05FDC,四平路街道鞍山路310弄居委会来沪人员管理站,阜新路280附近,政府机构及社会团体;政府机关;政府机关相关,130100,310000,上海市,21,上海市,310110,杨浦区,四平路,"121.508845,31.280204",[],政府机构及社会团体,政府机关,政府机关相关,121.508845,31.280204,"121.504441,31.282228",121.504441,31.282228,POINT (121.504441 31.282228)
B0FFIAPR6A,中共杨浦区四平路街道鞍山八村居民区总支部委员会,铁岭路119号附近,政府机构及社会团体;政府机关;政府机关相关,130100,310000,上海市,21,上海市,310110,杨浦区,四平路,"121.511575,31.280610",[],政府机构及社会团体,政府机关,政府机关相关,121.511575,31.28061,"121.507181,31.282641",121.507181,31.282641,POINT (121.507181 31.282641)
B0FFJ3F936,上海市政院五院,中山北二路901号1号楼4楼,政府机构及社会团体;政府机关;政府机关相关,130100,310000,上海市,21,上海市,310110,杨浦区,四平路,"121.507219,31.286006",[],政府机构及社会团体,政府机关,政府机关相关,121.507219,31.286006,"121.502809,31.288022",121.502809,31.288022,POINT (121.502809 31.288022)
B0FFHWO14T,四平地区小区工会联合会同济新村居民区议事会,同一路同济新村社区,政府机构及社会团体;政府机关;政府机关相关,130100,310000,上海市,21,上海市,310110,杨浦区,四平路,"121.507829,31.282566",[],政府机构及社会团体,政府机关,政府机关相关,121.507829,31.282566,"121.503422,31.284586",121.503422,31.284586,POINT (121.503422 31.284586)
B0FFMHV3UX,学生社区管理服务中心彰武公寓部,彰武路100号同济大学彰武路校区附近,政府机构及社会团体;政府机关;政府机关相关,130100,310000,上海市,21,上海市,310110,杨浦区,四平路,"121.513313,31.281315",[],政府机构及社会团体,政府机关,政府机关相关,121.513313,31.281315,"121.508925,31.283351",121.508925,31.283351,POINT (121.508925 31.283351)
B0H0UCPAOU,控江路街道安全生产监督管理站,内环高架路大运盛城,政府机构及社会团体;政府机关;政府机关相关,130100,310000,上海市,21,上海市,310110,杨浦区,四平路,"121.520817,31.285532",[],政府机构及社会团体,政府机关,政府机关相关,121.520817,31.285532,"121.516455,31.287588",121.516455,31.287588,POINT (121.516455 31.287588)
B0FFHOF70Q,上汽大众24小时援助服务,赤峰路北50米,汽车服务;汽车救援;汽车救援,010700,310000,上海市,21,上海市,310110,杨浦区,四平路,"121.498148,31.281467",[],汽车服务,汽车救援,汽车救援,121.498148,31.281467,"121.493706,31.283458",121.493706,31.283458,POINT (121.493706 31.283458)
B0FFJ13P6T,淘小馆(君欣时代广场店),控江路1777号君欣广场第五层第07号,餐饮服务;中餐厅;中餐厅,050100,310000,上海市,21,上海市,310110,杨浦区,四平路,"121.514609,31.273539",021-65121209,餐饮服务,中餐厅,中餐厅,121.514609,31.273539,"121.510227,31.275582",121.510227,31.275582,POINT (121.510227 31.275582)
B0GR3RL875,很久以前羊肉串(紫荆广场店),控江路1628号紫荆广场4楼,餐饮服务;中餐厅;中餐厅,050100,310000,上海市,21,上海市,310110,杨浦区,四平路,"121.517656,31.275243",15216881549,餐饮服务,中餐厅,中餐厅,121.517656,31.275243,"121.513284,31.277294",121.513284,31.277294,POINT (121.513284 31.277294)
B00154DT9H,老图们绿色烧烤(大连路店),大连路1550号,餐饮服务;中餐厅;特色/地方风味餐厅,050118,310000,上海市,21,上海市,310110,杨浦区,四平路,"121.502986,31.273696",021-65041363,餐饮服务,中餐厅,特色/地方风味餐厅,121.502986,31.273696,"121.498562,31.275705",121.498562,31.275705,POINT (121.498562 31.275705)
B0FFK9O5D5,拿渡麻辣香锅(紫荆广场江浦路店),控江路1628号紫荆广场B1层,餐饮服务;中餐厅;特色/地方风味餐厅,050118,310000,上海市,21,上海市,310110,杨浦区,四平路,"121.517136,31.275193",021-55397717;13788998057,餐饮服务,中餐厅,特色/地方风味餐厅,121.517136,31.275193,"121.512762,31.277243",121.512762,31.277243,POINT (121.512762 31.277243)
B0FFKYYHI3,曹阿姨私房菜,大连路1548号-7,餐饮服务;中餐厅;中餐厅,050100,310000,上海市,21,上海市,310110,杨浦区,四平路,"121.503386,31.273400",18217108205,餐饮服务,中餐厅,中餐厅,121.503386,31.2734,"121.498963,31.27541",121.498963,31.27541,POINT (121.498963 31.27541)
B0H0Z7VPUS,聚十三烤肉博物馆(魔都首店),国定路333号三号湾广场二楼(味千楼上),餐饮服务;中餐厅;中餐厅,050100,310000,上海市,21,上海市,310110,杨浦区,四平路,"121.509315,31.296601",021-65559965,餐饮服务,中餐厅,中餐厅,121.509315,31.296601,"121.504912,31.298619",121.504912,31.298619,POINT (121.504912 31.298619)
B0H107WF93,酥鱼坊（国权路店）,国权路319号,餐饮服务;餐饮相关场所;餐饮相关,050000,310000,上海市,21,上海市,310110,杨浦区,四平路,"121.508622,31.290154",18918521892,餐饮服务,餐饮相关场所,餐饮相关,121.508622,31.290154,"121.504217,31.292173",121.504217,31.292173,POINT (121.504217 31.292173)
B0FFFFQHYC,传说中武记肉夹馍(复旦大学店),政熙路88号附近,餐饮服务;中餐厅;中餐厅,050100,310000,上海市,21,上海市,310110,杨浦区,四平路,"121.507537,31.290520",13262757931,餐饮服务,中餐厅,中餐厅,121.507537,31.29052,"121.503128,31.292535",121.503128,31.292535,POINT (121.503128 31.292535)
B0FFHUCH93,加勺饭菜饭骨头汤(四平路店),四平路941-4号四平路地铁站,餐饮服务;中餐厅;中餐厅,050100,310000,上海市,21,上海市,310110,杨浦区,四平路,"121.501910,31.275578",15067917714,餐饮服务,中餐厅,中餐厅,121.50191,31.275578,"121.497482,31.277583",121.497482,31.277583,POINT (121.497482 31.277583)
B0GRC1EMQW,安妮阿姨蛋包饭(同济广场店),彰武路20号303-07号,餐饮服务;中餐厅;中餐厅,050100,310000,上海市,21,上海市,310110,杨浦区,四平路,"121.507774,31.281347",13621808579,餐饮服务,中餐厅,中餐厅,121.507774,31.281347,"121.503367,31.283367",121.503367,31.283367,POINT (121.503367 31.283367)
B0H1L6DMCB,陕如故·肉夹馍(赤峰路店),赤峰路35号-6,餐饮服务;中餐厅;中餐厅,050100,310000,上海市,21,上海市,310110,杨浦区,四平路,"121.503569,31.279158",[],餐饮服务,中餐厅,中餐厅,121.503569,31.279158,"121.499147,31.281166",121.499147,31.281166,POINT (121.499147 31.281166)
B0FFGJ9F64,于记·大漠羊肉串,苏家屯路108号,餐饮服务;中餐厅;中餐厅,050100,310000,上海市,21,上海市,310110,杨浦区,四平路,"121.507152,31.277289",021-65155277,餐饮服务,中餐厅,中餐厅,121.507152,31.277289,"121.502743,31.279309",121.502743,31.279309,POINT (121.502743 31.279309)
B0H251NJGT,叔侄烧烤(同济大学店),彰武路20号,餐饮服务;中餐厅;特色/地方风味餐厅,050118,310000,上海市,21,上海市,310110,杨浦区,四平路,"121.508082,31.281519",[],餐饮服务,中餐厅,特色/地方风味餐厅,121.508082,31.281519,"121.503676,31.28354",121.503676,31.28354,POINT (121.503676 31.28354)
B0FFGBRRKX,九鲤千里香馄饨王(国定路店),国定路299弄6号101室,餐饮服务;中餐厅;特色/地方风味餐厅,050118,310000,上海市,21,上海市,310110,杨浦区,四平路,"121.509918,31.295915",[],餐饮服务,中餐厅,特色/地方风味餐厅,121.509918,31.295915,"121.505517,31.297935",121.505517,31.297935,POINT (121.505517 31.297935)
B0H6LRERIV,千里香馄饨(上海国权路分店),国权路332号,餐饮服务;中餐厅;特色/地方风味餐厅,050118,310000,上海市,21,上海市,310110,杨浦区,四平路,"121.508026,31.290639",13651822534;15759900500,餐饮服务,中餐厅,特色/地方风味餐厅,121.508026,31.290639,"121.503619,31.292656",121.503619,31.292656,POINT (121.503619 31.292656)
B0G0AATSWF,千里香馄饨王(国顺路店),国顺路90号,餐饮服务;中餐厅;特色/地方风味餐厅,050118,310000,上海市,21,上海市,310110,杨浦区,四平路,"121.517670,31.291176",[],餐饮服务,中餐厅,特色/地方风味餐厅,121.51767,31.291176,"121.513297,31.293221",121.513297,31.293221,POINT (121.513297 31.293221)
B0FFKRNGHQ,东吉烧烤,彰武路20号303-3,餐饮服务;中餐厅;特色/地方风味餐厅,050118,310000,上海市,21,上海市,310110,杨浦区,四平路,"121.508014,31.281613",[],餐饮服务,中餐厅,特色/地方风味餐厅,121.508014,31.281613,"121.503607,31.283633",121.503607,31.283633,POINT (121.503607 31.283633)
B0H1M91TPE,沪小红帽烧烤(虹口店),彰武路20号303-02室,餐饮服务;中餐厅;特色/地方风味餐厅,050118,310000,上海市,21,上海市,310110,杨浦区,四平路,"121.507865,31.281579",[],餐饮服务,中餐厅,特色/地方风味餐厅,121.507865,31.281579,"121.503458,31.283599",121.503458,31.283599,POINT (121.503458 31.283599)
B0FFKPWBWO,鱼籽村秘制拌饭(同济大学店),上海市彰武路18号B座204室,餐饮服务;餐饮相关场所;餐饮相关,050000,310000,上海市,21,上海市,310110,杨浦区,四平路,"121.506850,31.281900",13011068186,餐饮服务,餐饮相关场所,餐饮相关,121.50685,31.2819,"121.502439,31.283917",121.502439,31.283917,POINT (121.502439 31.283917)
B0FFK6JX32,食咩嘢(海上海店),大连路970号101室,餐饮服务;甜品店;甜品店,050900,310000,上海市,21,上海市,310110,杨浦区,四平路,"121.507191,31.265928",13003226969,餐饮服务,甜品店,甜品店,121.507191,31.265928,"121.502783,31.267953",121.502783,31.267953,POINT (121.502783 31.267953)
B0HKH7FG60,丰盛冰铺(国定路店),国定路兴平昌苑,餐饮服务;餐饮相关场所;餐饮相关,050000,310000,上海市,21,上海市,310110,杨浦区,四平路,"121.514112,31.293945",[],餐饮服务,餐饮相关场所,餐饮相关,121.514112,31.293945,"121.509726,31.295978",121.509726,31.295978,POINT (121.509726 31.295978)
B0FFGOGVCR,蓝岸通讯,五角场街道国定路335号2号楼14层,购物服务;家电电子卖场;手机销售,060305,310000,上海市,21,上海市,310110,杨浦区,四平路,"121.508694,31.296992",[],购物服务,家电电子卖场,手机销售,121.508694,31.296992,"121.504288,31.299008",121.504288,31.299008,POINT (121.504288 31.299008)
B0FFLFLIR2,上海戴尔电脑经销商(商用事业部),国定路335号1号楼5楼,购物服务;家电电子卖场;数码电子,060306,310000,上海市,21,上海市,310110,杨浦区,四平路,"121.508237,31.297384",18701992019,购物服务,家电电子卖场,数码电子,121.508237,31.297384,"121.50383,31.299399",121.50383,31.299399,POINT (121.50383 31.299399)
B0FFG8E0AH,微软店中店(上海五角场店),邯郸路585号苏宁电器1层,购物服务;家电电子卖场;数码电子,060306,310000,上海市,21,上海市,310110,杨浦区,四平路,"121.514481,31.298632",18601352526,购物服务,家电电子卖场,数码电子,121.514481,31.298632,"121.510096,31.300665",121.510096,31.300665,POINT (121.510096 31.300665)
B0FFGB2NH9,美的专柜,邯郸路585号苏宁五角场3楼,购物服务;家电电子卖场;家电电子卖场,060300,310000,上海市,21,上海市,310110,杨浦区,四平路,"121.514416,31.298912",13501763928,购物服务,家电电子卖场,家电电子卖场,121.514416,31.298912,"121.510031,31.300944",121.510031,31.300944,POINT (121.510031 31.300944)
B0FFM7Q51X,明基投影体验店,邯郸路365号颐高二楼L212室,购物服务;家电电子卖场;数码电子,060306,310000,上海市,21,上海市,310110,杨浦区,四平路,"121.508701,31.297526",13482486010;021-55661321,购物服务,家电电子卖场,数码电子,121.508701,31.297526,"121.504295,31.299542",121.504295,31.299542,POINT (121.504295 31.299542)
B0FFK62QGZ,小米之家(上海紫荆广场专卖店),控江路1628号紫荆广场1楼L1-21铺位,购物服务;家电电子卖场;数码电子,060306,310000,上海市,21,上海市,310110,杨浦区,四平路,"121.516689,31.275113",17807581159,购物服务,家电电子卖场,数码电子,121.516689,31.275113,"121.512314,31.277162",121.512314,31.277162,POINT (121.512314 31.277162)
B0FFF73H9K,lenovo联想(上海市颐高数码店),邯郸路国定路365号颐高数码广场L105室,购物服务;家电电子卖场;数码电子,060306,310000,上海市,21,上海市,310110,杨浦区,四平路,"121.508547,31.297437",13916349114,购物服务,家电电子卖场,数码电子,121.508547,31.297437,"121.504141,31.299453",121.504141,31.299453,POINT (121.504141 31.299453)
B0HRV7X1T6,三星品牌体验店（苏宁易购五角场店）,邯郸路585号1楼,购物服务;家电电子卖场;手机销售,060305,310000,上海市,21,上海市,310110,杨浦区,四平路,"121.514735,31.298971",13661419637,购物服务,家电电子卖场,手机销售,121.514735,31.298971,"121.510351,31.301004",121.510351,31.301004,POINT (121.510351 31.301004)
B0FFH2V3HJ,飞利浦显示器专卖店,邯郸路365号C212室,购物服务;家电电子卖场;数码电子,060306,310000,上海市,21,上海市,310110,杨浦区,四平路,"121.508734,31.297478",18516299198,购物服务,家电电子卖场,数码电子,121.508734,31.297478,"121.504329,31.299494",121.504329,31.299494,POINT (121.504329 31.299494)
B0G0A6QLN1,卡萨帝,邯郸路与国宾路交叉口东约160米,购物服务;家电电子卖场;家电电子卖场,060300,310000,上海市,21,上海市,310110,杨浦区,四平路,"121.514459,31.299027",[],购物服务,家电电子卖场,家电电子卖场,121.514459,31.299027,"121.510074,31.301059",121.510074,31.301059,POINT (121.510074 31.301059)
B0IGKRLH76,OPPO品牌体验店(苏宁易购五角场店）,邯郸路585号苏宁广场1楼,购物服务;家电电子卖场;手机销售,060305,310000,上海市,21,上海市,310110,杨浦区,四平路,"121.514454,31.299056",[],购物服务,家电电子卖场,手机销售,121.514454,31.299056,"121.510069,31.301088",121.510069,31.301088,POINT (121.510069 31.301088)
B0H6XPV3PH,大华安防产品体验店,抚顺路与铁岭路交叉口东约140米,购物服务;家电电子卖场;家电电子卖场,060300,310000,上海市,21,上海市,310110,杨浦区,四平路,"121.514661,31.279802",13764917231,购物服务,家电电子卖场,家电电子卖场,121.514661,31.279802,"121.510278,31.281843",121.510278,31.281843,POINT (121.510278 31.281843)
B0FFMBVLVI,杰富电脑,邯郸路365号颐高数码广场(五角场店)F2,购物服务;家电电子卖场;数码电子,060306,310000,上海市,21,上海市,310110,杨浦区,四平路,"121.508061,31.297263",[],购物服务,家电电子卖场,数码电子,121.508061,31.297263,"121.503653,31.299277",121.503653,31.299277,POINT (121.503653 31.299277)
B0IBCHLT0X,方太(五角场店),邯郸路585号3楼,购物服务;家居建材市场;厨卫市场,060604,310000,上海市,21,上海市,310110,杨浦区,四平路,"121.514506,31.299245",[],购物服务,家居建材市场,厨卫市场,121.514506,31.299245,"121.510121,31.301278",121.510121,31.301278,POINT (121.510121 31.301278)
B0IBKHIGDQ,家用空调,[],购物服务;家电电子卖场;家电电子卖场,060300,310000,上海市,21,上海市,310110,杨浦区,四平路,"121.514453,31.265979",[],购物服务,家电电子卖场,家电电子卖场,121.514453,31.265979,"121.510071,31.268025",121.510071,31.268025,POINT (121.510071 31.268025)
B0G2FSZQL8,全家便利店(国权路三店),国权路271号,购物服务;便民商店/便利店;便民商店/便利店,060200,310000,上海市,21,上海市,310110,杨浦区,四平路,"121.509619,31.290007",[],购物服务,便民商店/便利店,便民商店/便利店,121.509619,31.290007,"121.505217,31.292029",121.505217,31.292029,POINT (121.505217 31.292029)
B0FFLIZAJO,喜士多(辽源西路店),辽源西路230弄5号108室,购物服务;便民商店/便利店;便民商店/便利店,060200,310000,上海市,21,上海市,310110,杨浦区,四平路,"121.508768,31.268532",13120711365,购物服务,便民商店/便利店,便民商店/便利店,121.508768,31.268532,"121.504365,31.27056",121.504365,31.27056,POINT (121.504365 31.27056)
B0FFK9FFES,全家便利店(国权路二店),国权路106-2号附近,购物服务;便民商店/便利店;便民商店/便利店,060200,310000,上海市,21,上海市,310110,杨浦区,四平路,"121.515955,31.287965",13611996800,购物服务,便民商店/便利店,便民商店/便利店,121.515955,31.287965,"121.511576,31.290006",121.511576,31.290006,POINT (121.511576 31.290006)
B0G064LYIO,盒马鲜生,国达路与政肃路交叉口北约100米,购物服务;综合市场;水产海鲜市场,060706,310000,上海市,21,上海市,310110,杨浦区,四平路,"121.508544,31.296551",[],购物服务,综合市场,水产海鲜市场,121.508544,31.296551,"121.504138,31.298567",121.504138,31.298567,POINT (121.504138 31.298567)
B0FFGZCZRH,良友(江浦路店),江浦路2013号,购物服务;便民商店/便利店;便民商店/便利店,060200,310000,上海市,21,上海市,310110,杨浦区,四平路,"121.513376,31.279554",[],购物服务,便民商店/便利店,便民商店/便利店,121.513376,31.279554,"121.508989,31.281591",121.508989,31.281591,POINT (121.508989 31.281591)
B0FFK1VKJJ,鲜米生鲜(锦西路店),锦西路67号,购物服务;综合市场;农副产品市场,060703,310000,上海市,21,上海市,310110,杨浦区,四平路,"121.512331,31.276768",18800389680,购物服务,综合市场,农副产品市场,121.512331,31.276768,"121.50794,31.278803",121.50794,31.278803,POINT (121.50794 31.278803)
B0FFIYBG1U,苑林生活超市,国科路80号一层-12,购物服务;超级市场;超市,060400,310000,上海市,21,上海市,310110,杨浦区,四平路,"121.519204,31.287005",021-65656808,购物服务,超级市场,超市,121.519204,31.287005,"121.514836,31.289056",121.514836,31.289056,POINT (121.514836 31.289056)
B0FFIRZ3OF,季选(彰武路店),彰武路65号,购物服务;购物相关场所;购物相关场所,060000,310000,上海市,21,上海市,310110,杨浦区,四平路,"121.510038,31.281207",15503684368,购物服务,购物相关场所,购物相关场所,121.510038,31.281207,"121.505639,31.283234",121.505639,31.283234,POINT (121.505639 31.283234)
B0FFKZY755,崇明生鲜馆(国顺路店),国顺路169号,购物服务;综合市场;农副产品市场,060703,310000,上海市,21,上海市,310110,杨浦区,四平路,"121.513718,31.290797",17661195535,购物服务,综合市场,农副产品市场,121.513718,31.290797,"121.509331,31.292831",121.509331,31.292831,POINT (121.509331 31.292831)
B0FFMGD99P,其融超市,国权路63号,购物服务;便民商店/便利店;便民商店/便利店,060200,310000,上海市,21,上海市,310110,杨浦区,四平路,"121.518676,31.288536",15801905729,购物服务,便民商店/便利店,便民商店/便利店,121.518676,31.288536,"121.514307,31.290585",121.514307,31.290585,POINT (121.514307 31.290585)
B0G3VXGB1S,皇宝时尚精品店,锦西路61号,购物服务;专卖店;礼品饰品店,061209,310000,上海市,21,上海市,310110,杨浦区,四平路,"121.512671,31.276979",[],购物服务,专卖店,礼品饰品店,121.512671,31.276979,"121.508281,31.279015",121.508281,31.279015,POINT (121.508281 31.279015)
B00155BAK8,顺歆食品店,国顺路86号2号,购物服务;便民商店/便利店;便民商店/便利店,060200,310000,上海市,21,上海市,310110,杨浦区,四平路,"121.517929,31.291265",021-55056413,购物服务,便民商店/便利店,便民商店/便利店,121.517929,31.291265,"121.513557,31.293311",121.513557,31.293311,POINT (121.513557 31.293311)
B001528890,申安饮料店,铁岭路47号,购物服务;便民商店/便利店;便民商店/便利店,060200,310000,上海市,21,上海市,310110,杨浦区,四平路,"121.514054,31.277919",[],购物服务,便民商店/便利店,便民商店/便利店,121.514054,31.277919,"121.509669,31.279959",121.509669,31.279959,POINT (121.509669 31.279959)
B0H6SR2ERY,ALDI奥乐齐(杨浦控江店),控江路2068号旭辉Mall1楼05-06a室,购物服务;超级市场;超市,060400,310000,上海市,21,上海市,310110,杨浦区,四平路,"121.509235,31.272956",4008201973,购物服务,超级市场,超市,121.509235,31.272956,"121.504833,31.274984",121.504833,31.274984,POINT (121.504833 31.274984)
B0FFGKT1I9,良友(抚顺路一店),抚顺路374号,购物服务;便民商店/便利店;便民商店/便利店,060200,310000,上海市,21,上海市,310110,杨浦区,四平路,"121.509675,31.277881",021-65144065;021-64160666,购物服务,便民商店/便利店,便民商店/便利店,121.509675,31.277881,"121.505275,31.279908",121.505275,31.279908,POINT (121.505275 31.279908)
B0FFFV5FY2,伍缘农工商超市(政肃店),政肃路55号,购物服务;超级市场;超市,060400,310000,上海市,21,上海市,310110,杨浦区,四平路,"121.506061,31.294156",021-65100324,购物服务,超级市场,超市,121.506061,31.294156,"121.501646,31.296166",121.501646,31.296166,POINT (121.501646 31.296166)
B00155FP18,景春明综合商店,国科路政本路300号对面,购物服务;便民商店/便利店;便民商店/便利店,060200,310000,上海市,21,上海市,310110,杨浦区,四平路,"121.515758,31.285906",[],购物服务,便民商店/便利店,便民商店/便利店,121.515758,31.285906,"121.511379,31.287948",121.511379,31.287948,POINT (121.511379 31.287948)
B0GUOD1WYG,如彩生活超市,国顺路138号1层东区-1,购物服务;超级市场;超市,060400,310000,上海市,21,上海市,310110,杨浦区,四平路,"121.514051,31.291046",17701679785;15902177228,购物服务,超级市场,超市,121.514051,31.291046,"121.509665,31.29308",121.509665,31.29308,POINT (121.509665 31.29308)
B0FFJJ1E3E,农工商超市(阜新路店),打虎山路110号鞍山六村(阜新路)鞍山六村42号阜新路口,购物服务;超级市场;超市,060400,310000,上海市,21,上海市,310110,杨浦区,四平路,"121.505326,31.274545",021-65145352,购物服务,超级市场,超市,121.505326,31.274545,"121.50091,31.27656",121.50091,31.27656,POINT (121.50091 31.27656)
B0G33O1QUH,华兴超市(大连西路店),大连西路大连西路四弄社区,购物服务;购物相关场所;购物相关场所,060000,310000,上海市,21,上海市,310110,杨浦区,四平路,"121.500240,31.275929",15959007916,购物服务,购物相关场所,购物相关场所,121.50024,31.275929,"121.495806,31.277929",121.495806,31.277929,POINT (121.495806 31.277929)
B0G295NK9X,一亩地生鲜,江浦路2015号-1号,购物服务;综合市场;农副产品市场,060703,310000,上海市,21,上海市,310110,杨浦区,四平路,"121.516846,31.280135",15102135071,购物服务,综合市场,农副产品市场,121.516846,31.280135,"121.512471,31.282182",121.512471,31.282182,POINT (121.512471 31.282182)
B00155HHSA,良友(辽源西店),辽源西路326(近海上海步行街),购物服务;便民商店/便利店;便民商店/便利店,060200,310000,上海市,21,上海市,310110,杨浦区,四平路,"121.507219,31.268659",021-65035839,购物服务,便民商店/便利店,便民商店/便利店,121.507219,31.268659,"121.502811,31.270683",121.502811,31.270683,POINT (121.502811 31.270683)
B0FFGE53BJ,全家便利店(彰武路二店),彰武路45、49,购物服务;便民商店/便利店;便民商店/便利店,060200,310000,上海市,21,上海市,310110,杨浦区,四平路,"121.509349,31.281488",021-65361019,购物服务,便民商店/便利店,便民商店/便利店,121.509349,31.281488,"121.504947,31.283512",121.504947,31.283512,POINT (121.504947 31.283512)
B0FFF6R74I,快客(大连路店),大连路1532号,购物服务;便民商店/便利店;便民商店/便利店,060200,310000,上海市,21,上海市,310110,杨浦区,四平路,"121.504911,31.272162",021-65638092;021-65016783,购物服务,便民商店/便利店,便民商店/便利店,121.504911,31.272162,"121.500494,31.274177",121.500494,31.274177,POINT (121.500494 31.274177)
B00155QUEY,全家便利店(政肃路店),政肃路60号,购物服务;便民商店/便利店;便民商店/便利店,060200,310000,上海市,21,上海市,310110,杨浦区,四平路,"121.505916,31.294484",021-35301073;021-35301072,购物服务,便民商店/便利店,便民商店/便利店,121.505916,31.294484,"121.501501,31.296493",121.501501,31.296493,POINT (121.501501 31.296493)
B0FFFDOFDB,易购超市(政本路店),五角场镇政本路268号,购物服务;便民商店/便利店;便民商店/便利店,060200,310000,上海市,21,上海市,310110,杨浦区,四平路,"121.515513,31.287098",[],购物服务,便民商店/便利店,便民商店/便利店,121.515513,31.287098,"121.511133,31.289138",121.511133,31.289138,POINT (121.511133 31.289138)
B00155QV1R,捷强(国定路店),国定路18号,购物服务;便民商店/便利店;便民商店/便利店,060200,310000,上海市,21,上海市,310110,杨浦区,四平路,"121.517279,31.294291",021-35071937,购物服务,便民商店/便利店,便民商店/便利店,121.517279,31.294291,"121.512904,31.296334",121.512904,31.296334,POINT (121.512904 31.296334)
B0FFHO26NS,联华超市(虎山店),打虎山路74号(鞍山二村沿街商铺),购物服务;超级市场;超市,060400,310000,上海市,21,上海市,310110,杨浦区,四平路,"121.508386,31.272740",021-35010957,购物服务,超级市场,超市,121.508386,31.27274,"121.503981,31.274765",121.503981,31.274765,POINT (121.503981 31.274765)
B0FFJEDPAK,苏宁小店(林绿家园店),国顺路173和177号,购物服务;便民商店/便利店;便民商店/便利店,060200,310000,上海市,21,上海市,310110,杨浦区,四平路,"121.513448,31.290915",[],购物服务,便民商店/便利店,便民商店/便利店,121.513448,31.290915,"121.50906,31.292948",121.50906,31.292948,POINT (121.50906 31.292948)
B0FFFFPLX9,上上金选·品牌集成店,黄兴路1839号,购物服务;服装鞋帽皮具店;服装鞋帽皮具店,061100,310000,上海市,21,上海市,310110,杨浦区,四平路,"121.515932,31.290369",13795272160,购物服务,服装鞋帽皮具店,服装鞋帽皮具店,121.515932,31.290369,"121.511553,31.292409",121.511553,31.292409,POINT (121.511553 31.292409)
B0G064N7A1,RUNMOON(悠迈广场店),四平路2500号UMAX悠迈生活广场F3,购物服务;服装鞋帽皮具店;品牌服装店,061101,310000,上海市,21,上海市,310110,杨浦区,四平路,"121.515909,31.298538",[],购物服务,服装鞋帽皮具店,品牌服装店,121.515909,31.298538,"121.511529,31.300575",121.511529,31.300575,POINT (121.511529 31.300575)
B0FFGK3TSS,MixBlu(紫荆广场),控江路1628号紫荆广场F2层L2-16,购物服务;服装鞋帽皮具店;品牌服装店,061101,310000,上海市,21,上海市,310110,杨浦区,四平路,"121.517318,31.275149",021-35081771,购物服务,服装鞋帽皮具店,品牌服装店,121.517318,31.275149,"121.512945,31.277199",121.512945,31.277199,POINT (121.512945 31.277199)
B0H0CL25OU,恩佐,四平路悠迈生活广场,购物服务;服装鞋帽皮具店;品牌服装店,061101,310000,上海市,21,上海市,310110,杨浦区,四平路,"121.515649,31.299010",021-65483525;021-55529900,购物服务,服装鞋帽皮具店,品牌服装店,121.515649,31.29901,"121.511268,31.301046",121.511268,31.301046,POINT (121.511268 31.301046)
B0G0PLG6VZ,KAMEDIER,[],购物服务;服装鞋帽皮具店;品牌服装店,061101,310000,上海市,21,上海市,310110,杨浦区,四平路,"121.515955,31.298341",[],购物服务,服装鞋帽皮具店,品牌服装店,121.515955,31.298341,"121.511575,31.300378",121.511575,31.300378,POINT (121.511575 31.300378)
B0HRVL7Q1Z,ELITE BABY(控江旭辉MALL店),控江路2068号控江旭辉MALLF2,购物服务;专卖店;儿童用品店,061207,310000,上海市,21,上海市,310110,杨浦区,四平路,"121.509003,31.273582",[],购物服务,专卖店,儿童用品店,121.509003,31.273582,"121.504601,31.275609",121.504601,31.275609,POINT (121.504601 31.275609)
B0HUV15LGO,中国邮政(胜利村邮政所),大连路1558-2号,生活服务;邮局;邮局,070400,310000,上海市,21,上海市,310110,杨浦区,四平路,"121.502642,31.274008",021-65138081,生活服务,邮局,邮局,121.502642,31.274008,"121.498217,31.276016",121.498217,31.276016,POINT (121.498217 31.276016)
